% program   : RTKPOST ver.2.4.3 b33
% inp file  : D:\Bureau\Python OC\M2GNSS\gnss-velocity-estimation\autoroute_apres_midi.obs
% inp file  : D:\Bureau\Python OC\M2GNSS\gnss-velocity-estimation\autoroute_apres_midi.nav
% obs start : 2019/11/25 12:24:56.0 GPST (week2081 131096.0s)
% obs end   : 2019/11/25 13:03:21.0 GPST (week2081 133401.0s)
% pos mode  : single
% elev mask : 15.0 deg
% ionos opt : broadcast
% tropo opt : saastamoinen
% ephemeris : broadcast
% navi sys  : gps glonass galileo
%
% (x/y/z-ecef=WGS84,Q=1:fix,2:float,3:sbas,4:dgps,5:single,6:ppp,ns=# of satellites)
%  GPST                      x-ecef(m)      y-ecef(m)      z-ecef(m)   Q  ns   sdx(m)   sdy(m)   sdz(m)  sdxy(m)  sdyz(m)  sdzx(m) age(s)  ratio
2019/11/25 12:24:56.000   4063308.4369    244285.5409   4893846.3441   5  13   5.3295   2.0822   5.9436  -1.2067  -1.5734   4.9567   0.00    0.0
2019/11/25 12:24:57.000   4063308.8457    244285.5634   4893846.7151   5  13   5.3295   2.0822   5.9439  -1.2064  -1.5734   4.9568   0.00    0.0
2019/11/25 12:24:58.000   4063309.0790    244285.6136   4893846.8051   5  13   5.3295   2.0822   5.9441  -1.2061  -1.5734   4.9569   0.00    0.0
2019/11/25 12:24:59.000   4063309.0954    244285.5596   4893847.0465   5  13   5.3294   2.0821   5.9444  -1.2058  -1.5734   4.9569   0.00    0.0
2019/11/25 12:25:00.000   4063309.6591    244285.3129   4893847.8666   5  13   5.3294   2.0821   5.9446  -1.2055  -1.5734   4.9570   0.00    0.0
2019/11/25 12:25:01.000   4063310.9254    244285.1442   4893849.1913   5  13   5.3294   2.0821   5.9449  -1.2051  -1.5734   4.9570   0.00    0.0
2019/11/25 12:25:02.000   4063310.7764    244284.9681   4893849.2089   5  13   5.3294   2.0821   5.9451  -1.2048  -1.5733   4.9571   0.00    0.0
2019/11/25 12:25:03.000   4063310.4247    244285.2976   4893849.0842   5  13   5.3293   2.0821   5.9454  -1.2045  -1.5733   4.9571   0.00    0.0
2019/11/25 12:25:04.000   4063310.5509    244285.4537   4893849.1209   5  13   5.3293   2.0821   5.9456  -1.2042  -1.5733   4.9572   0.00    0.0
2019/11/25 12:25:05.000   4063310.6930    244285.4655   4893849.3812   5  13   5.3293   2.0820   5.9459  -1.2039  -1.5733   4.9573   0.00    0.0
2019/11/25 12:25:06.000   4063310.6965    244285.5262   4893849.1342   5  13   5.3293   2.0820   5.9461  -1.2036  -1.5733   4.9573   0.00    0.0
2019/11/25 12:25:07.000   4063310.8222    244285.7341   4893848.9910   5  13   5.3292   2.0820   5.9464  -1.2032  -1.5733   4.9574   0.00    0.0
2019/11/25 12:25:08.000   4063310.8043    244285.7343   4893849.0191   5  13   5.3292   2.0820   5.9466  -1.2029  -1.5733   4.9574   0.00    0.0
2019/11/25 12:25:09.000   4063310.7192    244285.9273   4893848.9684   5  13   5.3292   2.0820   5.9469  -1.2026  -1.5733   4.9575   0.00    0.0
2019/11/25 12:25:10.000   4063311.3384    244285.8727   4893849.5767   5  13   5.3291   2.0820   5.9471  -1.2023  -1.5733   4.9575   0.00    0.0
2019/11/25 12:25:11.000   4063311.5539    244285.8077   4893849.8137   5  13   5.3291   2.0819   5.9474  -1.2020  -1.5732   4.9576   0.00    0.0
2019/11/25 12:25:12.000   4063312.0070    244285.8012   4893850.2764   5  13   5.3291   2.0819   5.9476  -1.2016  -1.5732   4.9576   0.00    0.0
2019/11/25 12:25:13.000   4063312.1498    244286.0022   4893850.4021   5  13   5.3290   2.0819   5.9478  -1.2013  -1.5732   4.9577   0.00    0.0
2019/11/25 12:25:14.000   4063312.0494    244285.9971   4893850.2505   5  13   5.3290   2.0819   5.9481  -1.2010  -1.5732   4.9577   0.00    0.0
2019/11/25 12:25:15.000   4063312.1132    244285.9967   4893850.2564   5  13   5.3290   2.0819   5.9483  -1.2007  -1.5732   4.9577   0.00    0.0
2019/11/25 12:25:16.000   4063312.0087    244285.9111   4893850.0544   5  13   5.3289   2.0818   5.9486  -1.2004  -1.5732   4.9578   0.00    0.0
2019/11/25 12:25:17.000   4063312.1746    244285.9502   4893849.6686   5  13   5.3289   2.0818   5.9488  -1.2001  -1.5732   4.9578   0.00    0.0
2019/11/25 12:25:18.000   4063312.0340    244285.9154   4893849.7029   5  13   5.3289   2.0818   5.9490  -1.1997  -1.5732   4.9579   0.00    0.0
2019/11/25 12:25:19.000   4063311.7068    244285.9252   4893849.2796   5  13   5.3288   2.0818   5.9493  -1.1994  -1.5731   4.9579   0.00    0.0
2019/11/25 12:25:20.000   4063311.2484    244285.8583   4893848.5165   5  13   5.3288   2.0818   5.9495  -1.1991  -1.5731   4.9580   0.00    0.0
2019/11/25 12:25:21.000   4063311.1410    244285.7350   4893848.2174   5  13   5.3288   2.0818   5.9497  -1.1988  -1.5731   4.9580   0.00    0.0
2019/11/25 12:25:22.000   4063311.3745    244285.6799   4893848.4206   5  13   5.3287   2.0817   5.9500  -1.1984  -1.5731   4.9580   0.00    0.0
2019/11/25 12:25:23.000   4063311.1065    244285.5716   4893848.1470   5  13   5.3287   2.0817   5.9502  -1.1981  -1.5731   4.9581   0.00    0.0
2019/11/25 12:25:24.000   4063310.9857    244285.5806   4893847.9645   5  13   5.3287   2.0817   5.9504  -1.1978  -1.5731   4.9581   0.00    0.0
2019/11/25 12:25:25.000   4063311.2831    244285.5407   4893848.0846   5  13   5.3286   2.0817   5.9507  -1.1975  -1.5731   4.9581   0.00    0.0
2019/11/25 12:25:26.000   4063311.5883    244285.4261   4893848.1433   5  13   5.3286   2.0817   5.9509  -1.1972  -1.5730   4.9582   0.00    0.0
2019/11/25 12:25:27.000   4063312.2210    244285.3970   4893848.3890   5  13   5.3285   2.0817   5.9511  -1.1968  -1.5730   4.9582   0.00    0.0
2019/11/25 12:25:28.000   4063312.4154    244285.2335   4893848.4060   5  13   5.3285   2.0816   5.9513  -1.1965  -1.5730   4.9582   0.00    0.0
2019/11/25 12:25:29.000   4063313.1681    244285.1181   4893849.3024   5  13   5.3285   2.0816   5.9516  -1.1962  -1.5730   4.9583   0.00    0.0
2019/11/25 12:25:30.000   4063313.5284    244285.1189   4893849.7361   5  13   5.3284   2.0816   5.9518  -1.1959  -1.5730   4.9583   0.00    0.0
2019/11/25 12:25:31.000   4063313.7189    244285.0828   4893849.7564   5  13   5.3284   2.0816   5.9520  -1.1955  -1.5730   4.9583   0.00    0.0
2019/11/25 12:25:32.000   4063313.7278    244285.0179   4893849.6187   5  13   5.3283   2.0816   5.9522  -1.1952  -1.5729   4.9584   0.00    0.0
2019/11/25 12:25:33.000   4063313.2022    244284.9679   4893849.2579   5  13   5.3283   2.0816   5.9525  -1.1949  -1.5729   4.9584   0.00    0.0
2019/11/25 12:25:34.000   4063313.2308    244284.7581   4893849.4119   5  13   5.3282   2.0815   5.9527  -1.1946  -1.5729   4.9584   0.00    0.0
2019/11/25 12:25:35.000   4063313.0331    244284.6868   4893848.9851   5  13   5.3282   2.0815   5.9529  -1.1942  -1.5729   4.9584   0.00    0.0
2019/11/25 12:25:36.000   4063313.1514    244284.5408   4893849.1075   5  13   5.3282   2.0815   5.9531  -1.1939  -1.5729   4.9585   0.00    0.0
2019/11/25 12:25:37.000   4063313.3636    244284.4149   4893849.4742   5  13   5.3281   2.0815   5.9533  -1.1936  -1.5729   4.9585   0.00    0.0
2019/11/25 12:25:38.000   4063313.2551    244284.5119   4893849.3669   5  13   5.3281   2.0815   5.9535  -1.1933  -1.5728   4.9585   0.00    0.0
2019/11/25 12:25:39.000   4063312.9458    244284.5160   4893849.3080   5  13   5.3280   2.0815   5.9538  -1.1929  -1.5728   4.9585   0.00    0.0
2019/11/25 12:25:40.000   4063313.1033    244284.4616   4893849.9366   5  13   5.3280   2.0814   5.9540  -1.1926  -1.5728   4.9586   0.00    0.0
2019/11/25 12:25:41.000   4063312.6806    244284.8674   4893849.6413   5  13   5.3279   2.0814   5.9542  -1.1923  -1.5728   4.9586   0.00    0.0
2019/11/25 12:25:42.000   4063312.8397    244284.7283   4893849.8611   5  13   5.3279   2.0814   5.9544  -1.1920  -1.5728   4.9586   0.00    0.0
2019/11/25 12:25:43.000   4063312.1655    244284.7524   4893849.1411   5  13   5.3278   2.0814   5.9546  -1.1916  -1.5727   4.9586   0.00    0.0
2019/11/25 12:25:44.000   4063312.1505    244285.0129   4893848.9816   5  13   5.3278   2.0814   5.9548  -1.1913  -1.5727   4.9586   0.00    0.0
2019/11/25 12:25:45.000   4063311.3555    244285.1354   4893848.4415   5  13   5.3277   2.0814   5.9550  -1.1910  -1.5727   4.9587   0.00    0.0
2019/11/25 12:25:46.000   4063311.0713    244285.1695   4893848.5553   5  13   5.3277   2.0814   5.9552  -1.1906  -1.5727   4.9587   0.00    0.0
2019/11/25 12:25:47.000   4063310.6677    244285.3711   4893848.3312   5  13   5.3276   2.0813   5.9554  -1.1903  -1.5727   4.9587   0.00    0.0
2019/11/25 12:25:48.000   4063310.2610    244285.1889   4893848.1420   5  13   5.3276   2.0813   5.9556  -1.1900  -1.5726   4.9587   0.00    0.0
2019/11/25 12:25:49.000   4063310.1115    244285.2215   4893848.2513   5  13   5.3275   2.0813   5.9558  -1.1897  -1.5726   4.9587   0.00    0.0
2019/11/25 12:25:50.000   4063310.5819    244284.9854   4893848.5583   5  13   5.3275   2.0813   5.9561  -1.1893  -1.5726   4.9587   0.00    0.0
2019/11/25 12:25:51.000   4063311.2685    244284.4830   4893849.3309   5  13   5.3274   2.0813   5.9563  -1.1890  -1.5726   4.9587   0.00    0.0
2019/11/25 12:25:52.000   4063311.7371    244284.5875   4893849.6429   5  13   5.3274   2.0813   5.9565  -1.1887  -1.5726   4.9587   0.00    0.0
2019/11/25 12:25:53.000   4063311.6138    244284.8867   4893849.6802   5  13   5.3273   2.0812   5.9567  -1.1883  -1.5725   4.9588   0.00    0.0
2019/11/25 12:25:54.000   4063311.7161    244284.8402   4893849.5939   5  13   5.3272   2.0812   5.9569  -1.1880  -1.5725   4.9588   0.00    0.0
2019/11/25 12:25:55.000   4063310.9085    244284.9674   4893849.7505   5  13   5.3272   2.0812   5.9571  -1.1877  -1.5725   4.9588   0.00    0.0
2019/11/25 12:25:56.000   4063310.6448    244284.8988   4893850.2365   5  13   5.3271   2.0812   5.9573  -1.1873  -1.5725   4.9588   0.00    0.0
2019/11/25 12:25:57.000   4063310.4891    244284.9538   4893850.1425   5  13   5.3271   2.0812   5.9574  -1.1870  -1.5724   4.9588   0.00    0.0
2019/11/25 12:25:58.000   4063309.3843    244284.6365   4893849.4950   5  13   5.3270   2.0812   5.9576  -1.1867  -1.5724   4.9588   0.00    0.0
2019/11/25 12:25:59.000   4063309.1547    244284.5667   4893850.1654   5  13   5.3270   2.0811   5.9578  -1.1863  -1.5724   4.9588   0.00    0.0
2019/11/25 12:26:00.000   4063308.7768    244284.3907   4893850.6296   5  13   5.3269   2.0811   5.9580  -1.1860  -1.5724   4.9588   0.00    0.0
2019/11/25 12:26:01.000   4063308.3763    244284.2737   4893851.7656   5  13   5.3268   2.0811   5.9582  -1.1857  -1.5723   4.9588   0.00    0.0
2019/11/25 12:26:02.000   4063307.8837    244283.9065   4893851.9413   5  13   5.3268   2.0811   5.9584  -1.1853  -1.5723   4.9588   0.00    0.0
2019/11/25 12:26:03.000   4063308.0227    244283.7032   4893851.9556   5  13   5.3267   2.0811   5.9586  -1.1850  -1.5723   4.9588   0.00    0.0
2019/11/25 12:26:04.000   4063308.6878    244283.7962   4893852.3638   5  13   5.3266   2.0811   5.9588  -1.1847  -1.5723   4.9588   0.00    0.0
2019/11/25 12:26:05.000   4063308.8337    244284.8243   4893851.4838   5  13   5.3266   2.0811   5.9590  -1.1843  -1.5722   4.9588   0.00    0.0
2019/11/25 12:26:06.000   4063309.4084    244287.0515   4893850.3415   5  13   5.3265   2.0810   5.9592  -1.1840  -1.5722   4.9588   0.00    0.0
2019/11/25 12:26:07.000   4063310.2581    244290.1964   4893849.1838   5  13   5.3265   2.0810   5.9594  -1.1837  -1.5722   4.9588   0.00    0.0
2019/11/25 12:26:08.000   4063311.4586    244293.7772   4893848.2185   5  13   5.3264   2.0810   5.9595  -1.1833  -1.5722   4.9588   0.00    0.0
2019/11/25 12:26:09.000   4063312.4318    244297.8784   4893847.6670   5  13   5.3263   2.0810   5.9597  -1.1830  -1.5721   4.9588   0.00    0.0
2019/11/25 12:26:10.000   4063314.3142    244301.4216   4893851.5073   5  12   5.7993   2.1192   6.9175  -1.5226  -1.9696   5.7136   0.00    0.0
2019/11/25 12:26:11.000   4063313.4532    244305.4857   4893852.7162   5  10   7.3557   3.4276   7.6162   2.2040  -2.3927   6.4964   0.00    0.0
2019/11/25 12:26:12.000   4063310.3039    244307.0366   4893856.0282   5  12   5.7994   2.1192   6.9184  -1.5220  -1.9695   5.7140   0.00    0.0
2019/11/25 12:26:13.000   4063304.1932    244310.0291   4893854.6156   5  13   5.3261   2.0809   5.9605  -1.1817  -1.5720   4.9587   0.00    0.0
2019/11/25 12:26:14.000   4063300.7902    244311.4287   4893857.7311   5  13   5.3260   2.0809   5.9606  -1.1813  -1.5720   4.9587   0.00    0.0
2019/11/25 12:26:15.000   4063298.3475    244312.8807   4893860.6583   5  12   5.4014   2.1435   6.3291  -0.9654  -1.1735   5.1481   0.00    0.0
2019/11/25 12:26:16.000   4063293.8689    244310.9129   4893862.4132   5  10   6.6238   2.2212   6.8817   0.5177   0.3624   5.8589   0.00    0.0
2019/11/25 12:26:17.000   4063291.6720    244308.7808   4893865.3955   5  12   5.4015   2.1434   6.3302  -0.9642  -1.1731   5.1486   0.00    0.0
2019/11/25 12:26:18.000   4063292.7822    244304.9210   4893870.9366   5  13   5.3257   2.0809   5.9613  -1.1800  -1.5719   4.9587   0.00    0.0
2019/11/25 12:26:19.000   4063289.6053    244300.2947   4893871.1067   5  13   5.3256   2.0808   5.9615  -1.1796  -1.5719   4.9587   0.00    0.0
2019/11/25 12:26:20.000   4063286.9305    244295.0957   4893872.2167   5  13   5.3256   2.0808   5.9617  -1.1793  -1.5718   4.9586   0.00    0.0
2019/11/25 12:26:21.000   4063285.7778    244289.6154   4893874.1254   5  13   5.3255   2.0808   5.9619  -1.1789  -1.5718   4.9586   0.00    0.0
2019/11/25 12:26:22.000   4063283.7977    244284.8667   4893875.1536   5  12   5.3938   2.1043   6.0337  -1.2876  -1.4762   4.8779   0.00    0.0
2019/11/25 12:26:23.000   4063284.1569    244282.0241   4893870.9989   5  12   5.3354   2.0913   6.6008  -1.2071  -1.7508   5.0512   0.00    0.0
2019/11/25 12:26:24.000   4063283.5247    244280.1802   4893872.2225   5  13   5.3253   2.0808   5.9624  -1.1779  -1.5717   4.9586   0.00    0.0
2019/11/25 12:26:25.000   4063283.2241    244279.0203   4893872.6011   5  13   5.3252   2.0807   5.9625  -1.1776  -1.5717   4.9585   0.00    0.0
2019/11/25 12:26:26.000   4063281.7392    244278.8655   4893873.3651   5  13   5.3251   2.0807   5.9627  -1.1772  -1.5717   4.9585   0.00    0.0
2019/11/25 12:26:27.000   4063281.7685    244278.3986   4893875.4604   5  13   5.3251   2.0807   5.9629  -1.1769  -1.5716   4.9585   0.00    0.0
2019/11/25 12:26:28.000   4063282.4518    244278.6843   4893874.4867   5  13   5.3250   2.0807   5.9630  -1.1766  -1.5716   4.9585   0.00    0.0
2019/11/25 12:26:29.000   4063283.1967    244278.7886   4893874.4818   5  13   5.3249   2.0807   5.9632  -1.1762  -1.5716   4.9584   0.00    0.0
2019/11/25 12:26:30.000   4063283.9774    244278.8651   4893875.2594   5  13   5.3248   2.0807   5.9634  -1.1759  -1.5715   4.9584   0.00    0.0
2019/11/25 12:26:31.000   4063284.1398    244278.8033   4893874.9712   5  12   5.3328   2.2182   5.9729  -1.0755  -1.6515   4.9485   0.00    0.0
2019/11/25 12:26:32.000   4063282.0062    244278.1431   4893873.7873   5  11   6.9534   2.7184   6.3014   2.4200   0.6537   5.7832   0.00    0.0
2019/11/25 12:26:33.000   4063282.1636    244278.4115   4893873.5251   5  13   5.3246   2.0806   5.9638  -1.1749  -1.5714   4.9583   0.00    0.0
2019/11/25 12:26:34.000   4063278.4397    244276.5659   4893873.0933   5  13   5.3245   2.0806   5.9640  -1.1745  -1.5714   4.9583   0.00    0.0
2019/11/25 12:26:35.000   4063280.8990    244273.2594   4893876.6631   5  13   5.3244   2.0806   5.9641  -1.1742  -1.5714   4.9583   0.00    0.0
2019/11/25 12:26:36.000   4063278.8584    244267.5835   4893875.8656   5  13   5.3244   2.0806   5.9643  -1.1738  -1.5713   4.9582   0.00    0.0
2019/11/25 12:26:37.000   4063280.4948    244262.2127   4893874.9157   5  13   5.3243   2.0806   5.9645  -1.1735  -1.5713   4.9582   0.00    0.0
2019/11/25 12:26:38.000   4063283.1311    244255.4179   4893874.4557   5  13   5.3242   2.0806   5.9646  -1.1731  -1.5713   4.9582   0.00    0.0
2019/11/25 12:26:39.000   4063285.3625    244247.8670   4893873.0197   5  12   5.3891   2.1035   6.0410  -1.2784  -1.4738   4.8769   0.00    0.0
2019/11/25 12:26:40.000   4063288.8516    244241.7633   4893872.8432   5   9   8.7219   5.6506   6.9685   5.5854   2.4984   6.5499   0.00    0.0
2019/11/25 12:26:41.000   4063291.1402    244234.3441   4893875.5495   5  11   5.4353   2.3491   6.3514  -0.5773  -1.0297   5.1728   0.00    0.0
2019/11/25 12:26:42.000   4063292.7926    244230.5695   4893874.3983   5  12   5.4032   2.1425   6.3441  -0.9493  -1.1677   5.1550   0.00    0.0
2019/11/25 12:26:43.000   4063290.3873    244225.3771   4893872.2949   5  13   5.3238   2.0805   5.9654  -1.1714  -1.5711   4.9580   0.00    0.0
2019/11/25 12:26:44.000   4063290.0422    244223.1466   4893872.3897   5  13   5.3237   2.0805   5.9655  -1.1711  -1.5711   4.9580   0.00    0.0
2019/11/25 12:26:45.000   4063290.1203    244218.7121   4893873.4161   5  13   5.3236   2.0805   5.9657  -1.1707  -1.5710   4.9579   0.00    0.0
2019/11/25 12:26:46.000   4063288.2365    244212.6553   4893874.2489   5  13   5.3235   2.0804   5.9658  -1.1704  -1.5710   4.9579   0.00    0.0
2019/11/25 12:26:47.000   4063286.2360    244205.5463   4893876.6765   5  13   5.3234   2.0804   5.9660  -1.1700  -1.5710   4.9578   0.00    0.0
2019/11/25 12:26:48.000   4063283.8293    244198.5108   4893878.3533   5  13   5.3233   2.0804   5.9661  -1.1697  -1.5709   4.9578   0.00    0.0
2019/11/25 12:26:49.000   4063283.4694    244190.7264   4893879.9769   5  13   5.3232   2.0804   5.9662  -1.1693  -1.5709   4.9578   0.00    0.0
2019/11/25 12:26:50.000   4063285.1526    244183.2648   4893879.6137   5  13   5.3232   2.0804   5.9664  -1.1690  -1.5708   4.9577   0.00    0.0
2019/11/25 12:26:51.000   4063288.5077    244177.6954   4893876.5665   5  11   6.8436   3.3487   6.3854   2.6086  -1.6465   5.5708   0.00    0.0
2019/11/25 12:26:52.000   4063294.0149    244174.5045   4893874.4729   5  12   5.4037   2.1421   6.3494  -0.9432  -1.1655   5.1574   0.00    0.0
2019/11/25 12:26:53.000   4063298.9981    244171.7660   4893869.2826   5  11   5.4417   2.1828   6.5140  -1.0759  -0.8652   5.0665   0.00    0.0
2019/11/25 12:26:54.000   4063304.2705    244173.5604   4893863.4322   5  11   5.4051   2.1773   6.6426  -0.9666  -1.4551   5.1805   0.00    0.0
2019/11/25 12:26:55.000   4063311.1310    244179.0305   4893856.9824   5  12   5.3248   2.1438   6.0978  -1.1339  -1.7657   4.9387   0.00    0.0
2019/11/25 12:26:56.000   4063316.6926    244184.5929   4893850.3678   5  10   6.8526   2.6275   7.0250   2.2355  -1.4497   5.5995   0.00    0.0
2019/11/25 12:26:57.000   4063325.6082    244189.3352   4893848.3834   5  12   5.3306   2.2186   5.9766  -1.0652  -1.6501   4.9475   0.00    0.0
2019/11/25 12:26:58.000   4063326.3738    244190.5272   4893838.5018   5  12   5.3305   2.2186   5.9767  -1.0648  -1.6501   4.9475   0.00    0.0
2019/11/25 12:26:59.000   4063339.0101    244193.0731   4893834.3792   5  13   5.3223   2.0803   5.9676  -1.1658  -1.5705   4.9573   0.00    0.0
2019/11/25 12:27:00.000   4063348.0572    244194.1843   4893826.4126   5  13   5.3222   2.0802   5.9678  -1.1655  -1.5705   4.9572   0.00    0.0
2019/11/25 12:27:01.000   4063359.2293    244196.6761   4893818.8141   5  13   5.3221   2.0802   5.9679  -1.1651  -1.5704   4.9572   0.00    0.0
2019/11/25 12:27:02.000   4063371.6307    244198.8243   4893812.1358   5  13   5.3220   2.0802   5.9680  -1.1648  -1.5704   4.9571   0.00    0.0
2019/11/25 12:27:03.000   4063380.9755    244200.7549   4893802.4112   5  13   5.3219   2.0802   5.9682  -1.1644  -1.5704   4.9571   0.00    0.0
2019/11/25 12:27:04.000   4063390.8762    244201.2474   4893791.7571   5  12   5.4043   2.1417   6.3557  -0.9359  -1.1629   5.1601   0.00    0.0
2019/11/25 12:27:05.000   4063403.0375    244203.9194   4893781.3749   5  10   5.4443   2.1911   8.4099  -1.0450   0.5691   5.1805   0.00    0.0
2019/11/25 12:27:06.000   4063415.6565    244206.2637   4893776.2651   5  12   5.4044   2.1416   6.3568  -0.9346  -1.1625   5.1606   0.00    0.0
2019/11/25 12:27:07.000   4063427.5173    244207.6739   4893764.6439   5  12   5.3297   2.2188   5.9778  -1.0611  -1.6496   4.9470   0.00    0.0
2019/11/25 12:27:08.000   4063436.8036    244208.1216   4893756.2829   5  13   5.3215   2.0801   5.9688  -1.1627  -1.5702   4.9568   0.00    0.0
2019/11/25 12:27:09.000   4063447.8973    244210.3072   4893747.8683   5  13   5.3214   2.0801   5.9689  -1.1623  -1.5701   4.9567   0.00    0.0
2019/11/25 12:27:10.000   4063456.8787    244212.9320   4893738.8764   5  13   5.3213   2.0801   5.9690  -1.1620  -1.5701   4.9567   0.00    0.0
2019/11/25 12:27:11.000   4063469.6240    244214.1528   4893732.7042   5  13   5.3212   2.0801   5.9692  -1.1616  -1.5701   4.9566   0.00    0.0
2019/11/25 12:27:12.000   4063476.1676    244216.4131   4893721.5318   5  12   5.4046   2.1414   6.3598  -0.9309  -1.1611   5.1619   0.00    0.0
2019/11/25 12:27:13.000   4063486.8656    244218.1000   4893717.3688   5  13   5.3210   2.0801   5.9694  -1.1609  -1.5700   4.9565   0.00    0.0
2019/11/25 12:27:14.000   4063493.8145    244219.8309   4893708.5647   5  13   5.3209   2.0801   5.9695  -1.1605  -1.5699   4.9564   0.00    0.0
2019/11/25 12:27:15.000   4063501.3900    244220.1662   4893699.2570   5  13   5.3208   2.0801   5.9696  -1.1602  -1.5699   4.9563   0.00    0.0
2019/11/25 12:27:16.000   4063507.1981    244221.6797   4893691.2558   5  13   5.3207   2.0800   5.9698  -1.1598  -1.5699   4.9563   0.00    0.0
2019/11/25 12:27:17.000   4063517.6186    244222.7389   4893686.3984   5  13   5.3205   2.0800   5.9699  -1.1595  -1.5698   4.9562   0.00    0.0
2019/11/25 12:27:18.000   4063522.8372    244223.7758   4893678.0101   5  13   5.3204   2.0800   5.9700  -1.1591  -1.5698   4.9561   0.00    0.0
2019/11/25 12:27:19.000   4063530.5466    244225.0454   4893672.7036   5  13   5.3203   2.0800   5.9701  -1.1588  -1.5697   4.9561   0.00    0.0
2019/11/25 12:27:20.000   4063537.0913    244226.0155   4893665.8774   5  13   5.3202   2.0800   5.9702  -1.1584  -1.5697   4.9560   0.00    0.0
2019/11/25 12:27:21.000   4063543.3481    244227.0118   4893661.7006   5  13   5.3201   2.0800   5.9703  -1.1580  -1.5697   4.9559   0.00    0.0
2019/11/25 12:27:22.000   4063548.6064    244227.7097   4893657.0400   5  13   5.3200   2.0800   5.9704  -1.1577  -1.5696   4.9558   0.00    0.0
2019/11/25 12:27:23.000   4063553.1317    244227.7250   4893654.2663   5  13   5.3199   2.0800   5.9705  -1.1573  -1.5696   4.9558   0.00    0.0
2019/11/25 12:27:24.000   4063557.0146    244226.6726   4893650.2290   5  13   5.3198   2.0799   5.9707  -1.1570  -1.5695   4.9557   0.00    0.0
2019/11/25 12:27:25.000   4063562.8238    244224.5990   4893645.3751   5  13   5.3197   2.0799   5.9708  -1.1566  -1.5695   4.9556   0.00    0.0
2019/11/25 12:27:26.000   4063568.7852    244221.1836   4893641.2767   5  13   5.3196   2.0799   5.9709  -1.1563  -1.5694   4.9555   0.00    0.0
2019/11/25 12:27:27.000   4063574.9773    244218.4350   4893636.6436   5  13   5.3195   2.0799   5.9710  -1.1559  -1.5694   4.9555   0.00    0.0
2019/11/25 12:27:28.000   4063581.0714    244217.9131   4893630.5903   5  13   5.3194   2.0799   5.9711  -1.1555  -1.5693   4.9554   0.00    0.0
2019/11/25 12:27:29.000   4063587.7908    244220.8769   4893626.5262   5  13   5.3192   2.0799   5.9712  -1.1552  -1.5693   4.9553   0.00    0.0
2019/11/25 12:27:30.000   4063592.8419    244225.7436   4893620.6523   5  13   5.3191   2.0799   5.9713  -1.1548  -1.5693   4.9552   0.00    0.0
2019/11/25 12:27:31.000   4063598.4802    244231.0918   4893616.4088   5  13   5.3190   2.0799   5.9714  -1.1544  -1.5692   4.9551   0.00    0.0
2019/11/25 12:27:32.000   4063604.9247    244235.5262   4893611.6696   5  13   5.3189   2.0799   5.9715  -1.1541  -1.5692   4.9551   0.00    0.0
2019/11/25 12:27:33.000   4063612.1147    244238.3235   4893602.9343   5   9   5.5691   2.7377   7.2848  -1.8765  -2.2285   4.9662   0.00    0.0
2019/11/25 12:27:34.000   4063620.8689    244239.5598   4893597.0414   5  12   5.3268   2.2193   5.9806  -1.0499  -1.6479   4.9452   0.00    0.0
2019/11/25 12:27:35.000   4063629.5920    244241.0385   4893589.7185   5  12   5.3267   2.2193   5.9807  -1.0495  -1.6478   4.9451   0.00    0.0
2019/11/25 12:27:36.000   4063637.1799    244242.5695   4893582.1963   5  13   5.3185   2.0798   5.9719  -1.1526  -1.5690   4.9547   0.00    0.0
2019/11/25 12:27:37.000   4063647.0372    244244.0235   4893573.9286   5  13   5.3183   2.0798   5.9720  -1.1523  -1.5689   4.9546   0.00    0.0
2019/11/25 12:27:38.000   4063656.8611    244246.4282   4893565.8273   5  13   5.3182   2.0798   5.9721  -1.1519  -1.5689   4.9545   0.00    0.0
2019/11/25 12:27:39.000   4063667.9358    244247.8470   4893557.9508   5  13   5.3181   2.0798   5.9722  -1.1515  -1.5688   4.9544   0.00    0.0
2019/11/25 12:27:40.000   4063677.6400    244249.1089   4893549.1513   5  13   5.3180   2.0798   5.9722  -1.1512  -1.5688   4.9544   0.00    0.0
2019/11/25 12:27:41.000   4063688.8458    244251.3890   4893538.6082   5  13   5.3179   2.0797   5.9723  -1.1508  -1.5688   4.9543   0.00    0.0
2019/11/25 12:27:42.000   4063700.7869    244253.3039   4893529.3142   5  13   5.3177   2.0797   5.9724  -1.1505  -1.5687   4.9542   0.00    0.0
2019/11/25 12:27:43.000   4063712.5844    244255.0508   4893521.0741   5  13   5.3176   2.0797   5.9725  -1.1501  -1.5687   4.9541   0.00    0.0
2019/11/25 12:27:44.000   4063723.7632    244257.4429   4893511.2673   5  13   5.3175   2.0797   5.9726  -1.1497  -1.5686   4.9540   0.00    0.0
2019/11/25 12:27:45.000   4063735.1687    244259.0686   4893502.1617   5  13   5.3174   2.0797   5.9727  -1.1494  -1.5686   4.9539   0.00    0.0
2019/11/25 12:27:46.000   4063746.4342    244261.3784   4893493.0596   5  13   5.3173   2.0797   5.9728  -1.1490  -1.5685   4.9538   0.00    0.0
2019/11/25 12:27:47.000   4063755.5896    244263.8481   4893481.6013   5  13   5.3171   2.0797   5.9729  -1.1486  -1.5685   4.9537   0.00    0.0
2019/11/25 12:27:48.000   4063769.9356    244266.2527   4893475.2381   5  13   5.3170   2.0797   5.9730  -1.1483  -1.5684   4.9536   0.00    0.0
2019/11/25 12:27:49.000   4063780.6648    244269.6228   4893465.8404   5  13   5.3169   2.0797   5.9730  -1.1479  -1.5684   4.9535   0.00    0.0
2019/11/25 12:27:50.000   4063794.1004    244271.7945   4893459.4465   5  13   5.3168   2.0796   5.9731  -1.1475  -1.5683   4.9534   0.00    0.0
2019/11/25 12:27:51.000   4063803.0443    244274.7819   4893450.2184   5  13   5.3167   2.0796   5.9732  -1.1472  -1.5683   4.9533   0.00    0.0
2019/11/25 12:27:52.000   4063813.5264    244277.7263   4893443.4170   5  13   5.3165   2.0796   5.9733  -1.1468  -1.5682   4.9532   0.00    0.0
2019/11/25 12:27:53.000   4063824.8339    244282.8720   4893435.5536   5  12   6.6438   2.4222   6.2484   1.9063  -0.4269   5.6426   0.00    0.0
2019/11/25 12:27:54.000   4063830.5492    244286.4667   4893425.7594   5  13   5.3163   2.0796   5.9734  -1.1461  -1.5681   4.9530   0.00    0.0
2019/11/25 12:27:55.000   4063840.0997    244289.4394   4893419.5653   5  13   5.3162   2.0796   5.9735  -1.1457  -1.5681   4.9529   0.00    0.0
2019/11/25 12:27:56.000   4063847.2766    244291.7597   4893413.3037   5  13   5.3160   2.0796   5.9736  -1.1453  -1.5680   4.9528   0.00    0.0
2019/11/25 12:27:57.000   4063853.4425    244295.2099   4893408.4387   5  12   6.6397   2.4226   6.2462   1.9061  -0.4366   5.6382   0.00    0.0
2019/11/25 12:27:58.000   4063861.2886    244297.4874   4893405.5199   5  13   5.3158   2.0796   5.9737  -1.1446  -1.5679   4.9526   0.00    0.0
2019/11/25 12:27:59.000   4063861.1014    244297.7944   4893398.6405   5  13   5.3156   2.0796   5.9738  -1.1442  -1.5679   4.9525   0.00    0.0
2019/11/25 12:28:00.000   4063867.8534    244296.0207   4893394.7783   5  12   5.3237   2.2198   5.9826  -1.0388  -1.6460   4.9427   0.00    0.0
2019/11/25 12:28:01.000   4063873.5542    244292.5206   4893392.4725   5  13   5.3154   2.0795   5.9739  -1.1435  -1.5678   4.9523   0.00    0.0
2019/11/25 12:28:02.000   4063874.5933    244286.5965   4893388.1679   5  13   5.3152   2.0795   5.9740  -1.1431  -1.5677   4.9521   0.00    0.0
2019/11/25 12:28:03.000   4063876.1717    244279.3762   4893388.8357   5  13   5.3151   2.0795   5.9741  -1.1427  -1.5677   4.9520   0.00    0.0
2019/11/25 12:28:04.000   4063873.7890    244271.7941   4893387.3056   5  11   5.5179   2.4778   6.6724  -1.4793  -1.9343   5.3749   0.00    0.0
2019/11/25 12:28:05.000   4063875.9259    244265.4156   4893392.2711   5  10   7.3461   3.0504   6.9304   3.0652   2.0553   6.3362   0.00    0.0
2019/11/25 12:28:06.000   4063870.6276    244259.9014   4893393.8911   5  10   5.5294   2.8050   6.6739  -1.3098  -1.9722   5.3712   0.00    0.0
2019/11/25 12:28:07.000   4063863.7764    244252.7294   4893398.0110   5  11   6.8492   2.7346   6.2478   2.4105   0.4074   5.6726   0.00    0.0
2019/11/25 12:28:08.000   4063857.1571    244248.5860   4893401.2331   5  12   5.4356   2.4156   6.3062  -1.6446  -2.2222   5.1789   0.00    0.0
2019/11/25 12:28:09.000   4063851.8237    244243.3613   4893406.1619   5  12   6.6274   2.4238   6.2395   1.9054  -0.4646   5.6250   0.00    0.0
2019/11/25 12:28:10.000   4063841.6030    244234.4320   4893411.7360   5  13   5.3142   2.0794   5.9745  -1.1401  -1.5673   4.9512   0.00    0.0
2019/11/25 12:28:11.000   4063835.1514    244227.2726   4893418.2270   5  13   5.3140   2.0794   5.9746  -1.1397  -1.5672   4.9511   0.00    0.0
2019/11/25 12:28:12.000   4063829.4397    244219.8843   4893425.3121   5  13   5.3139   2.0794   5.9746  -1.1394  -1.5671   4.9510   0.00    0.0
2019/11/25 12:28:13.000   4063823.1542    244212.9149   4893431.7861   5  13   5.3138   2.0794   5.9747  -1.1390  -1.5671   4.9508   0.00    0.0
2019/11/25 12:28:14.000   4063814.8070    244206.2335   4893436.5778   5  13   5.3136   2.0794   5.9747  -1.1386  -1.5670   4.9507   0.00    0.0
2019/11/25 12:28:15.000   4063809.2749    244199.2128   4893443.1961   5  13   5.3135   2.0794   5.9748  -1.1382  -1.5670   4.9506   0.00    0.0
2019/11/25 12:28:16.000   4063803.1542    244192.7693   4893448.6478   5  13   5.3133   2.0793   5.9748  -1.1379  -1.5669   4.9505   0.00    0.0
2019/11/25 12:28:17.000   4063797.5507    244186.2751   4893454.4168   5  13   5.3132   2.0793   5.9749  -1.1375  -1.5669   4.9503   0.00    0.0
2019/11/25 12:28:18.000   4063796.8261    244178.2644   4893463.8217   5  13   5.3131   2.0793   5.9749  -1.1371  -1.5668   4.9502   0.00    0.0
2019/11/25 12:28:19.000   4063785.4178    244174.8891   4893463.6159   5  13   5.3129   2.0793   5.9750  -1.1367  -1.5667   4.9501   0.00    0.0
2019/11/25 12:28:20.000   4063783.0803    244170.0634   4893468.8302   5  13   5.3128   2.0793   5.9750  -1.1364  -1.5667   4.9499   0.00    0.0
2019/11/25 12:28:21.000   4063779.8761    244167.1260   4893472.0623   5  13   5.3126   2.0793   5.9751  -1.1360  -1.5666   4.9498   0.00    0.0
2019/11/25 12:28:22.000   4063777.6385    244164.8978   4893473.9220   5  13   5.3125   2.0793   5.9751  -1.1356  -1.5666   4.9497   0.00    0.0
2019/11/25 12:28:23.000   4063777.1230    244163.0384   4893476.0513   5  13   5.3123   2.0793   5.9752  -1.1352  -1.5665   4.9495   0.00    0.0
2019/11/25 12:28:24.000   4063775.8667    244162.2119   4893476.1619   5  13   5.3122   2.0792   5.9752  -1.1348  -1.5664   4.9494   0.00    0.0
2019/11/25 12:28:25.000   4063776.4465    244161.2592   4893477.1540   5  13   5.3121   2.0792   5.9753  -1.1345  -1.5664   4.9493   0.00    0.0
2019/11/25 12:28:26.000   4063776.7258    244161.3906   4893477.4504   5  12   5.3202   2.2203   5.9839  -1.0273  -1.6439   4.9396   0.00    0.0
2019/11/25 12:28:27.000   4063777.0172    244160.9898   4893477.7576   5  12   5.3200   2.2203   5.9839  -1.0269  -1.6438   4.9394   0.00    0.0
2019/11/25 12:28:28.000   4063771.1200    244162.6311   4893473.0585   5  11   7.3187   2.8413   7.3250  -3.1566  -3.1925   6.7551   0.00    0.0
2019/11/25 12:28:29.000   4063772.2164    244158.7553   4893475.1572   5  12   7.2905   2.6215   7.2425  -3.0426  -2.9979   6.7028   0.00    0.0
2019/11/25 12:28:30.000   4063777.0358    244153.3675   4893477.8679   5  13   5.3113   2.0792   5.9755  -1.1326  -1.5661   4.9486   0.00    0.0
2019/11/25 12:28:31.000   4063776.8591    244150.1225   4893474.9036   5  13   5.3112   2.0792   5.9755  -1.1322  -1.5660   4.9485   0.00    0.0
2019/11/25 12:28:32.000   4063777.8814    244144.6955   4893473.2378   5  13   5.3110   2.0792   5.9755  -1.1318  -1.5660   4.9483   0.00    0.0
2019/11/25 12:28:33.000   4063779.6796    244137.0425   4893473.0369   5  12   5.4310   2.4144   6.3036  -1.6354  -2.2171   5.1735   0.00    0.0
2019/11/25 12:28:34.000   4063781.3123    244130.2901   4893472.3963   5   9   7.3231   3.1508   7.2420   3.1010   2.4096   6.3592   0.00    0.0
2019/11/25 12:28:35.000   4063782.4698    244121.1334   4893472.5420   5  10   5.5289   2.8037   6.6818  -1.2870  -1.9557   5.3735   0.00    0.0
2019/11/25 12:28:36.000   4063781.6674    244110.2799   4893471.9508   5  12   5.4060   2.1387   6.3989  -0.8775  -1.1419   5.1765   0.00    0.0
2019/11/25 12:28:37.000   4063783.0288    244099.1102   4893471.2490   5  13   5.3103   2.0791   5.9757  -1.1299  -1.5656   4.9476   0.00    0.0
2019/11/25 12:28:38.000   4063785.3429    244089.7623   4893469.5328   5  13   5.3101   2.0791   5.9757  -1.1295  -1.5656   4.9475   0.00    0.0
2019/11/25 12:28:39.000   4063787.2728    244079.5978   4893468.0359   5  13   5.3100   2.0791   5.9758  -1.1291  -1.5655   4.9473   0.00    0.0
2019/11/25 12:28:40.000   4063788.9736    244068.6308   4893466.6690   5  13   5.3098   2.0791   5.9758  -1.1287  -1.5655   4.9472   0.00    0.0
2019/11/25 12:28:41.000   4063791.7057    244059.0507   4893464.4146   5  13   5.3097   2.0791   5.9758  -1.1284  -1.5654   4.9470   0.00    0.0
2019/11/25 12:28:42.000   4063795.3560    244049.6275   4893463.4320   5  13   5.3095   2.0790   5.9759  -1.1280  -1.5653   4.9469   0.00    0.0
2019/11/25 12:28:43.000   4063797.8989    244041.1139   4893461.2570   5  13   5.3094   2.0790   5.9759  -1.1276  -1.5653   4.9467   0.00    0.0
2019/11/25 12:28:44.000   4063800.3297    244033.8943   4893459.6037   5  13   5.3092   2.0790   5.9759  -1.1272  -1.5652   4.9466   0.00    0.0
2019/11/25 12:28:45.000   4063802.0754    244027.0222   4893458.4464   5  13   5.3090   2.0790   5.9759  -1.1268  -1.5651   4.9464   0.00    0.0
2019/11/25 12:28:46.000   4063803.1934    244020.4505   4893457.6059   5  13   5.3089   2.0790   5.9759  -1.1264  -1.5651   4.9463   0.00    0.0
2019/11/25 12:28:47.000   4063804.2287    244014.7686   4893457.9222   5  13   5.3087   2.0790   5.9760  -1.1261  -1.5650   4.9461   0.00    0.0
2019/11/25 12:28:48.000   4063804.2976    244009.6549   4893457.6815   5  13   5.3086   2.0790   5.9760  -1.1257  -1.5649   4.9459   0.00    0.0
2019/11/25 12:28:49.000   4063804.5338    244003.9990   4893458.3857   5  13   5.3084   2.0790   5.9760  -1.1253  -1.5649   4.9458   0.00    0.0
2019/11/25 12:28:50.000   4063804.6913    243997.2175   4893459.3269   5  13   5.3082   2.0790   5.9760  -1.1249  -1.5648   4.9456   0.00    0.0
2019/11/25 12:28:51.000   4063804.2206    243989.1165   4893459.8599   5  13   5.3081   2.0789   5.9760  -1.1245  -1.5647   4.9455   0.00    0.0
2019/11/25 12:28:52.000   4063802.6956    243979.7595   4893459.5818   5  12   6.2521   2.1249   6.4924   0.4339  -1.1546   5.7305   0.00    0.0
2019/11/25 12:28:53.000   4063806.4358    243971.1749   4893463.3451   5  13   5.3078   2.0789   5.9761  -1.1237  -1.5646   4.9452   0.00    0.0
2019/11/25 12:28:54.000   4063806.1373    243962.7894   4893463.8467   5  13   5.3076   2.0789   5.9761  -1.1233  -1.5645   4.9450   0.00    0.0
2019/11/25 12:28:55.000   4063803.7117    243954.1682   4893462.7053   5  13   5.3074   2.0789   5.9761  -1.1230  -1.5645   4.9448   0.00    0.0
2019/11/25 12:28:56.000   4063803.0162    243945.5155   4893462.7158   5  13   5.3073   2.0789   5.9761  -1.1226  -1.5644   4.9447   0.00    0.0
2019/11/25 12:28:57.000   4063803.5058    243936.2363   4893463.3321   5  13   5.3071   2.0789   5.9761  -1.1222  -1.5643   4.9445   0.00    0.0
2019/11/25 12:28:58.000   4063803.2259    243925.8580   4893463.1789   5  13   5.3070   2.0789   5.9761  -1.1218  -1.5643   4.9443   0.00    0.0
2019/11/25 12:28:59.000   4063802.5471    243914.3160   4893462.7426   5  13   5.3068   2.0789   5.9761  -1.1214  -1.5642   4.9442   0.00    0.0
2019/11/25 12:29:00.000   4063802.9792    243901.7382   4893463.1978   5  13   5.3066   2.0788   5.9761  -1.1210  -1.5641   4.9440   0.00    0.0
2019/11/25 12:29:01.000   4063803.2496    243888.1731   4893463.8120   5  13   5.3065   2.0788   5.9762  -1.1206  -1.5641   4.9438   0.00    0.0
2019/11/25 12:29:02.000   4063803.5253    243874.3412   4893464.2265   5  13   5.3063   2.0788   5.9762  -1.1202  -1.5640   4.9437   0.00    0.0
2019/11/25 12:29:03.000   4063803.5911    243860.6019   4893464.4735   5  13   5.3061   2.0788   5.9762  -1.1198  -1.5639   4.9435   0.00    0.0
2019/11/25 12:29:04.000   4063803.8320    243847.0628   4893464.9105   5  13   5.3060   2.0788   5.9762  -1.1194  -1.5638   4.9433   0.00    0.0
2019/11/25 12:29:05.000   4063804.2522    243833.4603   4893465.5182   5  13   5.3058   2.0788   5.9762  -1.1191  -1.5638   4.9432   0.00    0.0
2019/11/25 12:29:06.000   4063804.5656    243819.5322   4893466.0954   5  13   5.3056   2.0788   5.9762  -1.1187  -1.5637   4.9430   0.00    0.0
2019/11/25 12:29:07.000   4063804.8470    243805.7515   4893466.3079   5  13   5.3055   2.0788   5.9762  -1.1183  -1.5636   4.9428   0.00    0.0
2019/11/25 12:29:08.000   4063805.4798    243792.0495   4893467.0440   5  13   5.3053   2.0788   5.9762  -1.1179  -1.5636   4.9427   0.00    0.0
2019/11/25 12:29:09.000   4063805.8879    243778.3872   4893467.5352   5  13   5.3051   2.0787   5.9762  -1.1175  -1.5635   4.9425   0.00    0.0
2019/11/25 12:29:10.000   4063806.0975    243764.7616   4893468.0276   5  13   5.3049   2.0787   5.9762  -1.1171  -1.5634   4.9423   0.00    0.0
2019/11/25 12:29:11.000   4063806.4653    243751.3346   4893468.6739   5  13   5.3048   2.0787   5.9762  -1.1167  -1.5633   4.9421   0.00    0.0
2019/11/25 12:29:12.000   4063806.6795    243737.7609   4893469.2363   5  13   5.3046   2.0787   5.9762  -1.1163  -1.5633   4.9419   0.00    0.0
2019/11/25 12:29:13.000   4063806.6977    243724.4242   4893469.7041   5  13   5.3044   2.0787   5.9761  -1.1159  -1.5632   4.9418   0.00    0.0
2019/11/25 12:29:14.000   4063806.7902    243711.1574   4893469.8614   5  13   5.3043   2.0787   5.9761  -1.1155  -1.5631   4.9416   0.00    0.0
2019/11/25 12:29:15.000   4063806.8512    243697.8496   4893470.4907   5  13   5.3041   2.0787   5.9761  -1.1151  -1.5631   4.9414   0.00    0.0
2019/11/25 12:29:16.000   4063806.8962    243684.6094   4893470.9272   5  13   5.3039   2.0787   5.9761  -1.1147  -1.5630   4.9412   0.00    0.0
2019/11/25 12:29:17.000   4063807.3336    243671.1736   4893471.4020   5  13   5.3037   2.0787   5.9761  -1.1143  -1.5629   4.9410   0.00    0.0
2019/11/25 12:29:18.000   4063807.2483    243657.8014   4893472.4889   5  13   5.3036   2.0786   5.9761  -1.1139  -1.5628   4.9409   0.00    0.0
2019/11/25 12:29:19.000   4063807.4679    243644.4855   4893472.1104   5  13   5.3034   2.0786   5.9761  -1.1135  -1.5628   4.9407   0.00    0.0
2019/11/25 12:29:20.000   4063807.5981    243631.1885   4893472.7883   5  13   5.3032   2.0786   5.9761  -1.1131  -1.5627   4.9405   0.00    0.0
2019/11/25 12:29:21.000   4063807.2321    243618.0167   4893473.4597   5  13   5.3030   2.0786   5.9761  -1.1127  -1.5626   4.9403   0.00    0.0
2019/11/25 12:29:22.000   4063806.1959    243604.9192   4893475.1809   5  13   5.3029   2.0786   5.9760  -1.1124  -1.5625   4.9401   0.00    0.0
2019/11/25 12:29:23.000   4063804.4715    243592.0728   4893477.4016   5  13   5.3027   2.0786   5.9760  -1.1120  -1.5625   4.9399   0.00    0.0
2019/11/25 12:29:24.000   4063801.5195    243579.7030   4893480.7337   5  13   5.3025   2.0786   5.9760  -1.1116  -1.5624   4.9397   0.00    0.0
2019/11/25 12:29:25.000   4063797.5417    243567.5259   4893484.1547   5  13   5.3023   2.0786   5.9760  -1.1112  -1.5623   4.9396   0.00    0.0
2019/11/25 12:29:26.000   4063793.7128    243555.2423   4893488.1890   5  13   5.3021   2.0786   5.9760  -1.1108  -1.5622   4.9394   0.00    0.0
2019/11/25 12:29:27.000   4063789.9920    243543.4430   4893492.0975   5  13   5.3020   2.0785   5.9760  -1.1104  -1.5622   4.9392   0.00    0.0
2019/11/25 12:29:28.000   4063786.2210    243532.0042   4893495.9811   5  13   5.3018   2.0785   5.9759  -1.1100  -1.5621   4.9390   0.00    0.0
2019/11/25 12:29:29.000   4063782.4469    243521.0108   4893499.6941   5  13   5.3016   2.0785   5.9759  -1.1096  -1.5620   4.9388   0.00    0.0
2019/11/25 12:29:30.000   4063778.7899    243510.1897   4893503.3738   5  13   5.3014   2.0785   5.9759  -1.1092  -1.5619   4.9386   0.00    0.0
2019/11/25 12:29:31.000   4063775.2262    243500.0435   4893507.1033   5  13   5.3012   2.0785   5.9759  -1.1088  -1.5618   4.9384   0.00    0.0
2019/11/25 12:29:32.000   4063771.1313    243490.1396   4893510.3689   5  13   5.3011   2.0785   5.9758  -1.1084  -1.5618   4.9382   0.00    0.0
2019/11/25 12:29:33.000   4063767.4794    243480.5279   4893513.5165   5  13   5.3009   2.0785   5.9758  -1.1080  -1.5617   4.9380   0.00    0.0
2019/11/25 12:29:34.000   4063764.5654    243470.9795   4893517.4140   5  13   5.3007   2.0785   5.9758  -1.1076  -1.5616   4.9378   0.00    0.0
2019/11/25 12:29:35.000   4063761.3203    243462.5154   4893519.8346   5  10   7.2272   4.5271   6.3426   3.8784  -2.2302   5.2411   0.00    0.0
2019/11/25 12:29:36.000   4063757.7914    243451.0954   4893524.8397   5  11   7.3331   2.8395   7.3653  -3.1520  -3.2053   6.7831   0.00    0.0
2019/11/25 12:29:37.000   4063753.3394    243443.7763   4893528.0399   5  11   7.3332   2.8394   7.3658  -3.1519  -3.2055   6.7835   0.00    0.0
2019/11/25 12:29:38.000   4063752.9510    243437.6341   4893533.4963   5  10  10.9840   3.5126   8.7371  -1.1680  -2.9962   9.0308   0.00    0.0
2019/11/25 12:29:39.000   4063749.2590    243428.1544   4893535.2286   5  13   5.2998   2.0784   5.9756  -1.1055  -1.5612   4.9368   0.00    0.0
2019/11/25 12:29:40.000   4063747.4193    243420.2301   4893536.3280   5  13   5.2996   2.0784   5.9756  -1.1051  -1.5611   4.9366   0.00    0.0
2019/11/25 12:29:41.000   4063746.3042    243413.8616   4893536.9860   5  13   5.2994   2.0784   5.9756  -1.1047  -1.5611   4.9364   0.00    0.0
2019/11/25 12:29:42.000   4063744.1824    243408.1377   4893536.0009   5  13   5.2992   2.0784   5.9755  -1.1043  -1.5610   4.9362   0.00    0.0
2019/11/25 12:29:43.000   4063745.7419    243400.4925   4893534.7810   5  13   5.2990   2.0784   5.9755  -1.1039  -1.5609   4.9360   0.00    0.0
2019/11/25 12:29:44.000   4063748.3567    243390.9157   4893533.5183   5  13   5.2988   2.0784   5.9754  -1.1035  -1.5608   4.9358   0.00    0.0
2019/11/25 12:29:45.000   4063751.6596    243381.5668   4893530.2577   5  10   5.4195   2.1802   8.6176  -0.9000   0.6993   5.1949   0.00    0.0
2019/11/25 12:29:46.000   4063754.8878    243372.9904   4893532.9500   5  11   5.5109   2.4703   6.6961  -1.4246  -1.8980   5.3763   0.00    0.0
2019/11/25 12:29:47.000   4063758.7812    243361.6156   4893526.8239   5  10   5.4191   2.1801   8.6199  -0.8981   0.7007   5.1949   0.00    0.0
2019/11/25 12:29:48.000   4063761.1671    243350.1092   4893525.1470   5  13   5.2981   2.0783   5.9753  -1.1019  -1.5605   4.9349   0.00    0.0
2019/11/25 12:29:49.000   4063765.6329    243338.4096   4893522.2345   5  13   5.2979   2.0783   5.9752  -1.1015  -1.5604   4.9347   0.00    0.0
2019/11/25 12:29:50.000   4063768.7879    243326.5840   4893520.6482   5  13   5.2977   2.0783   5.9752  -1.1011  -1.5603   4.9345   0.00    0.0
2019/11/25 12:29:51.000   4063773.1531    243314.1991   4893519.4940   5  13   5.2975   2.0783   5.9752  -1.1007  -1.5603   4.9343   0.00    0.0
2019/11/25 12:29:52.000   4063776.1219    243301.6703   4893516.4003   5  13   5.2973   2.0783   5.9751  -1.1003  -1.5602   4.9341   0.00    0.0
2019/11/25 12:29:53.000   4063780.0417    243289.5666   4893513.9163   5  13   5.2971   2.0783   5.9751  -1.0998  -1.5601   4.9339   0.00    0.0
2019/11/25 12:29:54.000   4063783.2042    243276.6770   4893510.7981   5  13   5.2969   2.0783   5.9750  -1.0994  -1.5600   4.9337   0.00    0.0
2019/11/25 12:29:55.000   4063787.0809    243264.1261   4893507.9815   5  13   5.2967   2.0783   5.9750  -1.0990  -1.5599   4.9334   0.00    0.0
2019/11/25 12:29:56.000   4063791.2148    243251.5276   4893506.1259   5  13   5.2965   2.0783   5.9749  -1.0986  -1.5599   4.9332   0.00    0.0
2019/11/25 12:29:57.000   4063794.9761    243238.2507   4893502.7201   5  13   5.2963   2.0783   5.9749  -1.0982  -1.5598   4.9330   0.00    0.0
2019/11/25 12:29:58.000   4063799.0693    243224.4777   4893499.7643   5  13   5.2961   2.0782   5.9748  -1.0978  -1.5597   4.9328   0.00    0.0
2019/11/25 12:29:59.000   4063803.4635    243209.8611   4893496.9638   5  13   5.2959   2.0782   5.9748  -1.0974  -1.5596   4.9326   0.00    0.0
2019/11/25 12:30:00.000   4063808.2121    243195.0251   4893494.5438   5  13   5.2957   2.0782   5.9747  -1.0970  -1.5595   4.9324   0.00    0.0
2019/11/25 12:30:01.000   4063812.4820    243179.1281   4893490.3682   5  13   5.2955   2.0782   5.9747  -1.0966  -1.5594   4.9321   0.00    0.0
2019/11/25 12:30:02.000   4063817.6863    243162.9126   4893488.3988   5  13   5.2953   2.0782   5.9746  -1.0962  -1.5594   4.9319   0.00    0.0
2019/11/25 12:30:03.000   4063822.2138    243146.0948   4893485.2124   5  13   5.2951   2.0782   5.9745  -1.0957  -1.5593   4.9317   0.00    0.0
2019/11/25 12:30:04.000   4063827.9058    243128.9772   4893480.4767   5  13   5.2949   2.0782   5.9745  -1.0953  -1.5592   4.9315   0.00    0.0
2019/11/25 12:30:05.000   4063832.9211    243111.5484   4893477.5402   5  13   5.2947   2.0782   5.9744  -1.0949  -1.5591   4.9312   0.00    0.0
2019/11/25 12:30:06.000   4063838.6986    243094.0881   4893474.5608   5  13   5.2945   2.0782   5.9744  -1.0945  -1.5590   4.9310   0.00    0.0
2019/11/25 12:30:07.000   4063844.2090    243075.2521   4893471.5208   5  13   5.2943   2.0782   5.9743  -1.0941  -1.5589   4.9308   0.00    0.0
2019/11/25 12:30:08.000   4063850.4141    243056.5768   4893467.8786   5  13   5.2941   2.0782   5.9743  -1.0937  -1.5588   4.9306   0.00    0.0
2019/11/25 12:30:09.000   4063856.0109    243037.6560   4893463.6152   5  13   5.2939   2.0781   5.9742  -1.0933  -1.5588   4.9303   0.00    0.0
2019/11/25 12:30:10.000   4063861.8111    243018.5191   4893459.9708   5  13   5.2937   2.0781   5.9741  -1.0929  -1.5587   4.9301   0.00    0.0
2019/11/25 12:30:11.000   4063867.4770    242999.1750   4893455.8968   5  13   5.2935   2.0781   5.9741  -1.0925  -1.5586   4.9299   0.00    0.0
2019/11/25 12:30:12.000   4063873.2753    242979.6594   4893451.9784   5  13   5.2933   2.0781   5.9740  -1.0920  -1.5585   4.9296   0.00    0.0
2019/11/25 12:30:13.000   4063879.2427    242960.3795   4893448.0854   5  13   5.2931   2.0781   5.9739  -1.0916  -1.5584   4.9294   0.00    0.0
2019/11/25 12:30:14.000   4063884.8576    242941.0737   4893443.9122   5  13   5.2929   2.0781   5.9739  -1.0912  -1.5583   4.9292   0.00    0.0
2019/11/25 12:30:15.000   4063890.5384    242921.1881   4893440.3563   5  13   5.2927   2.0781   5.9738  -1.0908  -1.5582   4.9289   0.00    0.0
2019/11/25 12:30:16.000   4063896.4504    242902.0371   4893436.4769   5  13   5.2925   2.0781   5.9737  -1.0904  -1.5582   4.9287   0.00    0.0
2019/11/25 12:30:17.000   4063901.6400    242882.2224   4893432.4066   5  13   5.2923   2.0781   5.9737  -1.0900  -1.5581   4.9285   0.00    0.0
2019/11/25 12:30:18.000   4063907.7907    242863.1532   4893428.7229   5  13   5.2921   2.0781   5.9736  -1.0895  -1.5580   4.9282   0.00    0.0
2019/11/25 12:30:19.000   4063913.8326    242843.9290   4893425.5094   5  13   5.2919   2.0781   5.9735  -1.0891  -1.5579   4.9280   0.00    0.0
2019/11/25 12:30:20.000   4063919.5343    242824.8240   4893421.7461   5  13   5.2917   2.0780   5.9734  -1.0887  -1.5578   4.9278   0.00    0.0
2019/11/25 12:30:21.000   4063926.0869    242806.2811   4893418.4824   5  13   5.2915   2.0780   5.9734  -1.0883  -1.5577   4.9275   0.00    0.0
2019/11/25 12:30:22.000   4063931.2490    242786.6217   4893414.2929   5  13   5.2912   2.0780   5.9733  -1.0879  -1.5576   4.9273   0.00    0.0
2019/11/25 12:30:23.000   4063936.5833    242767.5068   4893410.4994   5  13   5.2910   2.0780   5.9732  -1.0875  -1.5575   4.9270   0.00    0.0
2019/11/25 12:30:24.000   4063942.3533    242748.0519   4893405.3560   5  13   5.2908   2.0780   5.9731  -1.0870  -1.5574   4.9268   0.00    0.0
2019/11/25 12:30:25.000   4063948.3661    242728.5054   4893401.7610   5  13   5.2906   2.0780   5.9731  -1.0866  -1.5574   4.9266   0.00    0.0
2019/11/25 12:30:26.000   4063954.1890    242709.7213   4893398.3114   5  13   5.2904   2.0780   5.9730  -1.0862  -1.5573   4.9263   0.00    0.0
2019/11/25 12:30:27.000   4063961.0186    242690.5803   4893395.7452   5  13   5.2902   2.0780   5.9729  -1.0858  -1.5572   4.9261   0.00    0.0
2019/11/25 12:30:28.000   4063968.1348    242671.7988   4893389.9883   5  13   5.2900   2.0780   5.9728  -1.0854  -1.5571   4.9258   0.00    0.0
2019/11/25 12:30:29.000   4063974.0560    242652.6462   4893384.8469   5  13   5.2898   2.0780   5.9727  -1.0850  -1.5570   4.9256   0.00    0.0
2019/11/25 12:30:30.000   4063979.8980    242633.4684   4893381.0310   5  13   5.2895   2.0780   5.9726  -1.0845  -1.5569   4.9253   0.00    0.0
2019/11/25 12:30:31.000   4063984.9386    242615.1013   4893377.6836   5  13   5.2893   2.0780   5.9726  -1.0841  -1.5568   4.9251   0.00    0.0
2019/11/25 12:30:32.000   4063989.2520    242597.4532   4893374.8227   5  13   5.2891   2.0779   5.9725  -1.0837  -1.5567   4.9248   0.00    0.0
2019/11/25 12:30:33.000   4063993.7902    242580.7922   4893372.4747   5  13   5.2889   2.0779   5.9724  -1.0833  -1.5566   4.9246   0.00    0.0
2019/11/25 12:30:34.000   4063998.3295    242564.3434   4893370.6088   5  13   5.2887   2.0779   5.9723  -1.0828  -1.5565   4.9243   0.00    0.0
2019/11/25 12:30:35.000   4064002.1235    242548.3246   4893367.8245   5  13   5.2885   2.0779   5.9722  -1.0824  -1.5564   4.9241   0.00    0.0
2019/11/25 12:30:36.000   4064005.6554    242533.2170   4893365.4292   5  13   5.2883   2.0779   5.9721  -1.0820  -1.5563   4.9238   0.00    0.0
2019/11/25 12:30:37.000   4064008.9019    242518.5548   4893363.5822   5  13   5.2880   2.0779   5.9720  -1.0816  -1.5563   4.9236   0.00    0.0
2019/11/25 12:30:38.000   4064011.8141    242504.4312   4893358.1405   5  13   5.2878   2.0779   5.9719  -1.0812  -1.5562   4.9233   0.00    0.0
2019/11/25 12:30:39.000   4064014.8326    242489.9876   4893358.9508   5  13   5.2876   2.0779   5.9718  -1.0807  -1.5561   4.9231   0.00    0.0
2019/11/25 12:30:40.000   4064017.9646    242476.6798   4893357.7708   5  13   5.2874   2.0779   5.9717  -1.0803  -1.5560   4.9228   0.00    0.0
2019/11/25 12:30:41.000   4064019.9576    242463.9346   4893356.3967   5  13   5.2872   2.0779   5.9717  -1.0799  -1.5559   4.9226   0.00    0.0
2019/11/25 12:30:42.000   4064022.1774    242451.4421   4893355.9451   5  13   5.2869   2.0779   5.9716  -1.0794  -1.5558   4.9223   0.00    0.0
2019/11/25 12:30:43.000   4064025.0520    242438.3581   4893354.3889   5  13   5.2867   2.0779   5.9715  -1.0790  -1.5557   4.9220   0.00    0.0
2019/11/25 12:30:44.000   4064027.2254    242425.2950   4893353.3787   5  13   5.2865   2.0779   5.9714  -1.0786  -1.5556   4.9218   0.00    0.0
2019/11/25 12:30:45.000   4064030.0705    242412.0154   4893350.5548   5  12   6.4659   2.4405   6.1475   1.8984  -0.7409   5.4463   0.00    0.0
2019/11/25 12:30:46.000   4064033.6584    242399.0407   4893349.2044   5  12   6.4649   2.4406   6.1469   1.8983  -0.7424   5.4451   0.00    0.0
2019/11/25 12:30:47.000   4064038.6577    242386.3207   4893346.4418   5  12   6.4638   2.4407   6.1462   1.8983  -0.7438   5.4440   0.00    0.0
2019/11/25 12:30:48.000   4064041.2201    242372.5884   4893343.6601   5  13   5.2856   2.0778   5.9710  -1.0769  -1.5552   4.9207   0.00    0.0
2019/11/25 12:30:49.000   4064044.8251    242359.4710   4893340.4674   5  13   5.2854   2.0778   5.9709  -1.0765  -1.5551   4.9205   0.00    0.0
2019/11/25 12:30:50.000   4064049.0713    242346.4874   4893338.1211   5  13   5.2852   2.0778   5.9708  -1.0760  -1.5550   4.9202   0.00    0.0
2019/11/25 12:30:51.000   4064052.5791    242333.2095   4893335.2177   5  13   5.2849   2.0778   5.9706  -1.0756  -1.5549   4.9199   0.00    0.0
2019/11/25 12:30:52.000   4064057.3481    242320.3858   4893333.1989   5  13   5.2847   2.0778   5.9705  -1.0752  -1.5548   4.9197   0.00    0.0
2019/11/25 12:30:53.000   4064060.6013    242307.2786   4893330.7811   5  13   5.2845   2.0778   5.9704  -1.0747  -1.5548   4.9194   0.00    0.0
2019/11/25 12:30:54.000   4064063.3835    242294.3057   4893328.3631   5  13   5.2843   2.0778   5.9703  -1.0743  -1.5547   4.9191   0.00    0.0
2019/11/25 12:30:55.000   4064066.8994    242281.6550   4893326.4846   5  13   5.2840   2.0778   5.9702  -1.0739  -1.5546   4.9189   0.00    0.0
2019/11/25 12:30:56.000   4064070.3757    242268.9905   4893325.0069   5  13   5.2838   2.0778   5.9701  -1.0734  -1.5545   4.9186   0.00    0.0
2019/11/25 12:30:57.000   4064073.2459    242256.9333   4893322.9720   5  13   5.2836   2.0778   5.9700  -1.0730  -1.5544   4.9183   0.00    0.0
2019/11/25 12:30:58.000   4064076.6909    242245.3730   4893320.3193   5  13   5.2834   2.0777   5.9699  -1.0726  -1.5543   4.9180   0.00    0.0
2019/11/25 12:30:59.000   4064081.3940    242233.6849   4893317.2610   5  13   5.2831   2.0777   5.9698  -1.0722  -1.5542   4.9178   0.00    0.0
2019/11/25 12:31:00.000   4064086.1295    242222.0429   4893313.3686   5  13   5.2829   2.0777   5.9697  -1.0717  -1.5541   4.9175   0.00    0.0
2019/11/25 12:31:01.000   4064091.2623    242210.5913   4893309.3896   5  13   5.2827   2.0777   5.9695  -1.0713  -1.5540   4.9172   0.00    0.0
2019/11/25 12:31:02.000   4064096.6153    242199.3111   4893305.4750   5  13   5.2824   2.0777   5.9694  -1.0709  -1.5539   4.9169   0.00    0.0
2019/11/25 12:31:03.000   4064101.8506    242188.2793   4893300.6385   5  13   5.2822   2.0777   5.9693  -1.0704  -1.5538   4.9167   0.00    0.0
2019/11/25 12:31:04.000   4064108.1036    242177.3211   4893296.5646   5  13   5.2820   2.0777   5.9692  -1.0700  -1.5537   4.9164   0.00    0.0
2019/11/25 12:31:05.000   4064116.8370    242167.2929   4893292.5795   5  13   5.2817   2.0777   5.9691  -1.0695  -1.5536   4.9161   0.00    0.0
2019/11/25 12:31:06.000   4064119.6098    242154.8763   4893286.3371   5  13   5.2815   2.0777   5.9690  -1.0691  -1.5535   4.9158   0.00    0.0
2019/11/25 12:31:07.000   4064126.4027    242143.7175   4893281.5780   5  13   5.2813   2.0777   5.9688  -1.0687  -1.5534   4.9155   0.00    0.0
2019/11/25 12:31:08.000   4064135.3772    242133.0328   4893277.9558   5  13   5.2810   2.0777   5.9687  -1.0682  -1.5533   4.9153   0.00    0.0
2019/11/25 12:31:09.000   4064140.5183    242121.4079   4893272.7721   5  13   5.2808   2.0777   5.9686  -1.0678  -1.5532   4.9150   0.00    0.0
2019/11/25 12:31:10.000   4064147.2014    242110.0305   4893267.8235   5  13   5.2806   2.0777   5.9685  -1.0674  -1.5531   4.9147   0.00    0.0
2019/11/25 12:31:11.000   4064153.9844    242099.2396   4893262.4534   5  13   5.2803   2.0777   5.9683  -1.0669  -1.5530   4.9144   0.00    0.0
2019/11/25 12:31:12.000   4064160.3290    242087.3035   4893258.2520   5  13   5.2801   2.0777   5.9682  -1.0665  -1.5529   4.9141   0.00    0.0
2019/11/25 12:31:13.000   4064166.0259    242075.1008   4893253.7984   5  13   5.2799   2.0777   5.9681  -1.0661  -1.5528   4.9138   0.00    0.0
2019/11/25 12:31:14.000   4064172.1548    242063.3255   4893249.1605   5  13   5.2796   2.0776   5.9680  -1.0656  -1.5527   4.9135   0.00    0.0
2019/11/25 12:31:15.000   4064177.9158    242051.2950   4893244.8563   5  13   5.2794   2.0776   5.9678  -1.0652  -1.5526   4.9133   0.00    0.0
2019/11/25 12:31:16.000   4064184.0401    242039.4145   4893240.6959   5  13   5.2792   2.0776   5.9677  -1.0647  -1.5525   4.9130   0.00    0.0
2019/11/25 12:31:17.000   4064190.1383    242027.4479   4893236.7489   5  13   5.2789   2.0776   5.9676  -1.0643  -1.5524   4.9127   0.00    0.0
2019/11/25 12:31:18.000   4064195.7843    242015.6054   4893232.1034   5  13   5.2787   2.0776   5.9674  -1.0639  -1.5523   4.9124   0.00    0.0
2019/11/25 12:31:19.000   4064202.8648    242004.6683   4893227.6303   5  13   5.2784   2.0776   5.9673  -1.0634  -1.5522   4.9121   0.00    0.0
2019/11/25 12:31:20.000   4064209.8895    241993.1371   4893223.3626   5  13   5.2782   2.0776   5.9672  -1.0630  -1.5521   4.9118   0.00    0.0
2019/11/25 12:31:21.000   4064217.1371    241982.7797   4893217.7963   5  13   5.2780   2.0776   5.9670  -1.0625  -1.5520   4.9115   0.00    0.0
2019/11/25 12:31:22.000   4064227.3947    241973.1813   4893211.7833   5  13   5.2777   2.0776   5.9669  -1.0621  -1.5519   4.9112   0.00    0.0
2019/11/25 12:31:23.000   4064236.9462    241964.6615   4893202.9687   5  13   5.2775   2.0776   5.9668  -1.0617  -1.5518   4.9109   0.00    0.0
2019/11/25 12:31:24.000   4064246.4752    241952.4265   4893197.1942   5  13   5.2772   2.0776   5.9666  -1.0612  -1.5517   4.9106   0.00    0.0
2019/11/25 12:31:25.000   4064254.1275    241939.7426   4893188.3132   5  13   5.2770   2.0776   5.9665  -1.0608  -1.5516   4.9103   0.00    0.0
2019/11/25 12:31:26.000   4064264.9103    241928.7562   4893179.3786   5  13   5.2768   2.0776   5.9664  -1.0603  -1.5515   4.9100   0.00    0.0
2019/11/25 12:31:27.000   4064275.7951    241917.2809   4893171.3958   5  13   5.2765   2.0776   5.9662  -1.0599  -1.5514   4.9097   0.00    0.0
2019/11/25 12:31:28.000   4064286.1620    241906.3430   4893162.8880   5  13   5.2763   2.0776   5.9661  -1.0594  -1.5513   4.9094   0.00    0.0
2019/11/25 12:31:29.000   4064297.0293    241896.3466   4893154.5334   5  13   5.2760   2.0776   5.9659  -1.0590  -1.5512   4.9091   0.00    0.0
2019/11/25 12:31:30.000   4064308.7893    241887.3194   4893145.4971   5  13   5.2758   2.0776   5.9658  -1.0586  -1.5511   4.9088   0.00    0.0
2019/11/25 12:31:31.000   4064321.1984    241879.1437   4893136.2637   5  13   5.2755   2.0776   5.9656  -1.0581  -1.5510   4.9085   0.00    0.0
2019/11/25 12:31:32.000   4064333.9229    241871.7475   4893126.0939   5  13   5.2753   2.0775   5.9655  -1.0577  -1.5509   4.9082   0.00    0.0
2019/11/25 12:31:33.000   4064347.3182    241865.0174   4893115.5749   5  13   5.2750   2.0775   5.9654  -1.0572  -1.5508   4.9079   0.00    0.0
2019/11/25 12:31:34.000   4064360.7876    241859.2430   4893103.6828   5  13   5.2748   2.0775   5.9652  -1.0568  -1.5507   4.9076   0.00    0.0
2019/11/25 12:31:35.000   4064375.2479    241855.0341   4893091.9873   5  13   5.2746   2.0775   5.9651  -1.0563  -1.5506   4.9073   0.00    0.0
2019/11/25 12:31:36.000   4064390.5539    241852.7600   4893079.9311   5  13   5.2743   2.0775   5.9649  -1.0559  -1.5505   4.9070   0.00    0.0
2019/11/25 12:31:37.000   4064405.9853    241851.9501   4893067.1980   5  13   5.2741   2.0775   5.9648  -1.0554  -1.5504   4.9067   0.00    0.0
2019/11/25 12:31:38.000   4064421.2177    241852.6868   4893054.4309   5  13   5.2738   2.0775   5.9646  -1.0550  -1.5503   4.9064   0.00    0.0
2019/11/25 12:31:39.000   4064436.2899    241854.7881   4893041.9405   5  13   5.2736   2.0775   5.9645  -1.0545  -1.5502   4.9061   0.00    0.0
2019/11/25 12:31:40.000   4064450.5575    241858.0160   4893029.7686   5  13   5.2733   2.0775   5.9643  -1.0541  -1.5501   4.9058   0.00    0.0
2019/11/25 12:31:41.000   4064464.5815    241861.7446   4893017.6753   5  13   5.2731   2.0775   5.9642  -1.0536  -1.5500   4.9055   0.00    0.0
2019/11/25 12:31:42.000   4064478.6734    241865.8804   4893006.2051   5  13   5.2728   2.0775   5.9640  -1.0532  -1.5499   4.9052   0.00    0.0
2019/11/25 12:31:43.000   4064492.2682    241870.2759   4892994.6076   5  13   5.2726   2.0775   5.9639  -1.0527  -1.5498   4.9049   0.00    0.0
