     3.03           OBSERVATION DATA    M: Mixed            RINEX VERSION / TYPE
RTKCONV 2.4.3 b33                       20191125 135306 UTC PGM / RUN BY / DATE 
log: C:\Users\henri\Nextcloud\M2\Projet S1\data_blox\very   COMMENT             
format: u-blox                                              COMMENT             
                                                            MARKER NAME         
                                                            MARKER NUMBER       
                                                            MARKER TYPE         
                                                            OBSERVER / AGENCY   
                                                            REC # / TYPE / VERS 
                                                            ANT # / TYPE        
  4063415.4075   247172.0817  4893642.5816                  APPROX POSITION XYZ 
        0.0000        0.0000        0.0000                  ANTENNA: DELTA H/E/N
G    4 C1C L1C D1C S1C                                      SYS / # / OBS TYPES 
R    4 C1C L1C D1C S1C                                      SYS / # / OBS TYPES 
E    4 C1C L1C D1C S1C                                      SYS / # / OBS TYPES 
J    4 C1C L1C D1C S1C                                      SYS / # / OBS TYPES 
S    4 C1C L1C D1C S1C                                      SYS / # / OBS TYPES 
C    4 C2I L2I D2I S2I                                      SYS / # / OBS TYPES 
  2019    11    25     9     8   23.9930000     GPS         TIME OF FIRST OBS   
  2019    11    25     9    51   21.9940000     GPS         TIME OF LAST OBS    
G                                                           SYS / PHASE SHIFT   
R                                                           SYS / PHASE SHIFT   
E                                                           SYS / PHASE SHIFT   
J                                                           SYS / PHASE SHIFT   
S                                                           SYS / PHASE SHIFT   
C                                                           SYS / PHASE SHIFT   
  0                                                         GLONASS SLOT / FRQ #
 C1C    0.000 C1P    0.000 C2C    0.000 C2P    0.000        GLONASS COD/PHS/BIS 
                                                            END OF HEADER       
> 2019 11 25  9  8 23.9930000  0 19                     
R17  17698303.411    94707167.3413       1194.903          52.000  
R 1  17404975.392    93039525.949       -2268.313          50.000  
R 8  20429278.622   109397838.8012      -4342.763          45.000  
R23  20597515.005   110182792.797       -4922.619          43.000  
R 2  18453748.937                2       2155.494          43.000  
G17  19672248.043                3      -1233.984          34.000  
R18  21412429.066                3       3624.701          26.000  
R 9  21162459.700   113006294.1603      -1149.542          48.000  
G22  19324954.939   101553321.372       -2383.661          49.000  
G 3  18116251.687    95201541.377       -1254.583          52.000  
G 1  20018197.388   105196332.071       -3483.589          49.000  
G11  21068151.896   110713882.584       -4340.804          44.000  
G23  19275859.873   101295326.9531       1483.065          49.000  
G 4  20206241.362   106184515.5022       2772.097          45.000  
G19  19622308.914   103115928.3502       -130.733          46.000  
G14  22222120.578   116778030.7242      -3777.471          37.000  
G 6  21230073.928                3       2618.066          37.000  
G31  21249787.251   111668390.5102       -776.638          41.000  
G 9  20892959.759   109793244.0833       3054.666          47.000  
> 2019 11 25  9  8 24.9930000  0 17                     
R17  17698079.918    94705972.1832       1194.639          52.000  
R 1  17405399.804    93041795.165       -2269.604          50.000  
R 8  20430089.656                3      -4344.044          49.000  
R23  20598436.005   110187718.149       -4926.202          46.000  
R 2  18453343.612    98470502.4282       2150.680          52.000  
G17  19672483.411   103379597.5782      -1241.053          49.000  
R 9  21162678.150   113007443.6152      -1150.113          43.000  
G22  19325408.523   101555705.402       -2384.688          49.000  
G 3  18116490.515    95202796.557       -1255.704          52.000  
G 1  20018860.457   105199815.524       -3483.208          45.000  
G11  21068977.784   110718223.368       -4339.971          41.000  
G23  19275577.616   101293844.568        1482.115          48.000  
G 4  20205713.772   106181743.8752       2770.874          45.000  
G19  19622333.161                3       -130.371          42.000  
G 6  21229577.578                3       2606.982          35.000  
G31  21249933.855   111669155.2693       -778.658          46.000  
G 9  20892378.126   109790189.2232       3053.915          43.000  
> 2019 11 25  9  8 25.9930000  0 19                     
R17  17697856.616    94704777.6172       1194.085          52.000  
R 1  17405824.594    93044065.314       -2270.781          50.000  
R 8  20430902.313                3      -4306.982          33.000  
R23  20599356.757   110192644.550       -4927.338          47.000  
R 2  18452941.733                3       2150.882          51.000  
G17  19672720.813   103380839.4692      -1244.427          45.000  
R18  21411083.244                3       3589.818          31.000  
R 9  21162892.731   113008593.7992      -1150.479          48.000  
G22  19325862.660   101558090.545       -2386.826          45.000  
G14  22223563.130                3      -3769.873          29.000  
G 3  18116729.530    95204052.545       -1256.397          53.000  
G 1  20019523.535                3      -3487.939          43.000  
G11  21069804.179   110722565.228       -4342.161          44.000  
G23  19275295.747   101292363.124        1481.279          49.000  
G 4  20205186.505   106178972.8992       2770.064          45.000  
G19  19622357.822   103116185.7042       -129.793          44.000  
G 6  21229078.166                3       2621.191          37.000  
G31  21250085.929                3       -774.414          34.000  
G 9  20891796.043   109787134.7602       3055.942          45.000  
> 2019 11 25  9  8 26.9930000  0 19                     
R17  17697633.515    94703583.7632       1193.318          52.000  
R 1  17406249.599    93046335.725       -2270.763          50.000  
R 8  20431713.673                3      -4359.521          38.000  
R23  20600277.767   110197567.7341      -4925.885          45.000  
R 2  18452538.380    98466205.7702       2149.186          51.000  
G17  19672957.604   103382089.8523      -1242.713          50.000  
R18  21410403.689                3       3601.270          27.000  
R 9  21163107.020   113009744.6522      -1152.148          46.000  
G22  19326316.366                3      -2386.084          44.000  
G14  22224284.147                3      -3780.954          28.000  
G 3  18116968.734    95205308.783       -1256.667          52.000  
G 1  20020186.752   105206791.0822      -3485.036          49.000  
G11  21070630.403   110726907.248       -4342.092          45.000  
G23  19275013.825   101290882.205        1480.406          49.000  
G 4  20204659.155   106176202.3982       2770.863          45.000  
G19  19622382.549   103116315.9382       -132.651          44.000  
G 6  21228581.057                3       2620.117          37.000  
G31  21250235.425                2       -778.790          30.000  
G 9  20891216.177   109784080.8952       3053.883          45.000  
> 2019 11 25  9  8 27.9930000  0 19                     
R17  17697410.719    94702390.5932       1192.564          52.000  
R 1  17406674.699    93048606.449       -2270.819          49.000  
R 8  20432531.439                3      -4354.802          34.000  
R23  20601198.606   110202494.081       -4926.388          48.000  
R 2  18452135.507    98464056.2982       2149.218          52.000  
G17  19673194.325   103383332.8632      -1242.364          49.000  
R18  21409734.177                3       3604.050          28.000  
R 9  21163322.936                3      -1148.340          39.000  
G22  19326770.163   101562862.3732      -2384.745          48.000  
G14  22225003.393                3      -3778.583          31.000  
G 3  18117207.666    95206565.102       -1256.418          52.000  
G 1  20020849.616   105210275.6952      -3484.281          49.000  
G11  21071456.557   110731248.921       -4340.130          39.000  
G23  19274732.183   101289401.250        1480.771          49.000  
G 4  20204131.783   106173431.8632       2770.515          45.000  
G19  19622409.828   103116446.7642       -130.990          46.000  
G 6  21228080.755                3       2619.482          37.000  
G31  21250383.996                3       -787.646          34.000  
G 9  20890634.343   109781026.8652       3054.023          47.000  
> 2019 11 25  9  8 28.9930000  0 19                     
R17  17697187.858    94701197.9722       1191.979          52.000  
R 1  17407099.005    93050877.550       -2271.318          50.000  
R 8  20433341.513                2      -4347.119          34.000  
R23  20602119.598   110207420.7312      -4926.918          49.000  
R 2  18451733.436    98461907.2002       2148.569          53.000  
G17  19673430.605   103384576.3252      -1244.010          50.000  
R18  21409070.204                3       3623.896          28.000  
R 9  21163539.118                3      -1160.657          32.000  
G22  19327224.161   101565247.4932      -2385.050          48.000  
G14  22225717.683                3      -3795.433          25.000  
G 3  18117447.009    95207821.700       -1256.808          52.000  
G 1  20021512.855   105213760.5412      -3484.137          40.000  
G11  21072282.620   110735590.826       -4341.824          45.000  
G23  19274450.449   101287920.697        1480.474          49.000  
G 4  20203604.425   106170661.6452       2769.791          45.000  
G19  19622433.002   103116578.2742       -131.253          43.000  
G 6  21227585.736   111551715.3992       2618.774          40.000  
G31  21250537.563                3       -784.602          29.000  
G 9  20890053.002   109777973.0872       3053.240          46.000  
> 2019 11 25  9  8 29.9930000  0 17                     
R17  17696964.901    94700006.2542       1191.300          52.000  
R 1  17407524.036    93053149.372       -2271.976          49.000  
R 8  20434148.991                3      -4341.357          31.000  
R23  20603040.442   110212347.8592      -4926.878          47.000  
R 2  18451331.043    98459758.7982       2147.474          51.000  
G17  19673667.099   103385820.6032      -1244.671          50.000  
R 9  21163754.401                3      -1154.384          35.000  
G22  19327678.059   101567633.1942      -2387.250          44.000  
G 3  18117686.204    95209078.960       -1257.583          52.000  
G 1  20022174.877   105217238.1443      -3486.047          47.000  
G11  21073109.154   110739933.221       -4342.737          45.000  
G23  19274169.025   101286441.025        1479.028          48.000  
G 4  20203077.799   106167892.0862       2769.080          45.000  
G19  19622459.758   103116710.4752       -132.447          48.000  
G 6  21227084.357   111549080.6392       2618.017          40.000  
G31  21250678.587                3       -779.394          38.000  
G 9  20889472.058   109774919.8292       3052.268          45.000  
> 2019 11 25  9  8 30.9930000  0 18                     
R17  17696742.415    94698815.165        1190.786          52.000  
R 1  17407949.102    93055421.444       -2272.121          50.000  
R 8  20434962.760                3      -4442.480          31.000  
R23  20603961.586   110217275.5052      -4927.591          47.000  
R 2  18450928.205    98457610.9912       2147.728          53.000  
G17  19673903.964   103387065.6042      -1245.481          50.000  
R18  21407725.094                3       3593.261          36.000  
R 9  21163975.945                3      -1143.934          29.000  
G22  19328131.856   101570017.7113      -2385.431          48.000  
G 3  18117925.389    95210336.431       -1257.599          51.000  
G 1  20022838.714   105220723.9402      -3485.279          48.000  
G11  21073935.618   110744276.009       -4342.732          45.000  
G23  19273887.745   101284961.921        1478.611          49.000  
G 4  20202550.920   106165123.1512       2768.878          45.000  
G19  19622484.459   103116843.4052       -132.856          48.000  
G 6  21226588.064                2       2607.759          31.000  
G31  21250830.591                3       -792.298          30.000  
G 9  20888891.306   109771867.211        3051.672          44.000  
> 2019 11 25  9  8 31.9930000  0 17                     
R17  17696519.925    94697624.194        1190.609          52.000  
R 1  17408374.058    93057693.798       -2272.545          49.000  
R 8  20435778.178                3      -4344.845          35.000  
R23  20604882.862   110222203.6942      -4929.017          48.000  
R 2  18450525.851    98455463.1372       2148.132          51.000  
G17  19674140.667   103388310.6342      -1246.890          47.000  
R18  21407049.094                2       3586.547          36.000  
R 9  21164191.904                3      -1158.868          29.000  
G22  19328586.024   101572403.6902      -2386.803          48.000  
G 3  18118164.571    95211594.104       -1258.151          51.000  
G 1  20023502.424   105224210.3652      -3487.017          48.000  
G11  21074762.113   110748619.314       -4343.925          44.000  
G23  19273606.103   101283483.188        1478.157          49.000  
G 4  20202024.081   106162354.4722       2767.567          45.000  
G19  19622509.731   103116976.4062       -133.303          46.000  
G31  21250974.713                3       -783.301          39.000  
G 9  20888310.563   109768814.625        3051.619          46.000  
> 2019 11 25  9  8 32.9930000  0 17                     
R17  17696297.142    94696433.325        1190.788          52.000  
R 1  17408799.390    93059966.365       -2272.340          49.000  
R 8  20436584.234                3      -4345.801          40.000  
R23  20605804.543   110227132.1362      -4927.925          48.000  
R 2  18450123.296    98453315.2872       2147.025          52.000  
G17  19674377.750   103389555.4772      -1245.002          50.000  
R18  21406380.698                3       3612.310          28.000  
R 9  21164405.813                3      -1129.883          32.000  
G22  19329039.887   101574789.8412      -2385.773          48.000  
G 3  18118404.001    95212851.897       -1257.586          52.000  
G 1  20024165.982   105227697.1962      -3486.852          48.000  
G11  21075588.629   110752962.916       -4343.478          45.000  
G23  19273324.666   101282004.758        1478.406          49.000  
G 4  20201496.892   106159585.9572       2768.514          45.000  
G19  19622535.012   103117109.3322       -132.229          47.000  
G 6  21225590.238                3       2619.508          36.000  
G 9  20887729.815   109765762.129        3052.198          44.000  
> 2019 11 25  9  8 33.9930000  0 19                     
R17  17696075.189    94695242.930        1189.765          52.000  
R 1  17409224.608    93062239.010       -2273.452          50.000  
R 8  20437394.208                3      -4341.553          41.000  
R23  20606725.544   110232060.8442      -4929.355          48.000  
R 2  18449720.846    98451167.9732       2145.781          50.000  
G17  19674614.471   103390801.0422      -1245.435          44.000  
R18  21405709.074                3       3592.919          33.000  
R 9  21164621.010                3      -1136.230          35.000  
G22  19329494.195   101577175.8372      -2386.075          48.000  
G14  22229315.041                3      -3775.961          27.000  
G 3  18118643.422    95214109.768       -1258.255          52.000  
G 1  20024829.535   105231184.1442      -3487.305          48.000  
G11  21076415.102   110757306.694       -4344.120          45.000  
G23  19273043.399   101280526.817        1477.297          49.000  
G 4  20200970.402   106156817.8922       2767.837          43.000  
G19  19622560.481   103117242.9582       -133.571          42.000  
G 6  21225090.146                3       2619.183          39.000  
G31  21251274.612                3       -784.277          36.000  
G 9  20887148.950   109762710.021        3051.074          45.000  
> 2019 11 25  9  8 34.9930000  0 18                     
R17  17695853.056    94694053.670        1188.678          52.000  
R 1  17409649.852    93064512.279       -2273.935          50.000  
R 8  20438204.504                3      -4344.336          35.000  
R23  20607647.295   110236990.464       -4930.500          48.000  
R 2  18449318.453    98449021.3361       2145.314          51.000  
G17  19674852.026   103392047.8272      -1247.273          47.000  
R18  21405034.885                3       3577.118          29.000  
R 9  21164837.466                3      -1150.195          35.000  
G22  19329948.136   101579562.2202      -2386.680          48.000  
G 3  18118882.743    95215368.261       -1258.944          52.000  
G 1  20025492.814   105234671.8042      -3487.969          48.000  
G11  21077242.055   110761651.296       -4344.940          44.000  
G23  19272762.154   101279049.907        1476.440          48.000  
G 4  20200443.846   106154050.9192       2767.227          46.000  
G19  19622586.159   103117377.5342       -135.030          47.000  
G 6  21224593.308                3       2610.840          35.000  
G31  21251426.167                3       -786.475          36.000  
G 9  20886568.512   109759659.122        3049.838          46.000  
> 2019 11 25  9  8 35.9930000  0 17                     
R17  17695630.622    94692865.272        1187.871          52.000  
R 1  17410075.136    93066785.892       -2274.074          50.000  
R 8  20439014.103                3      -4346.973          40.000  
R23  20608568.828   110241920.484       -4929.615          48.000  
R 2  18448916.566    98446876.154        2144.804          53.000  
G17  19675089.615   103393295.5372      -1248.083          50.000  
R 9  21165057.282                3      -1145.068          30.000  
G22  19330402.291   101581948.6352      -2386.587          48.000  
G 3  18119122.361    95216627.111       -1259.186          52.000  
G 1  20026156.781   105238159.7262      -3488.236          49.000  
G11  21078068.781   110765996.255       -4344.438          44.000  
G23  19272481.602   101277573.733        1475.928          49.000  
G 4  20199917.399   106151284.7852       2765.954          45.000  
G19  19622612.059   103117513.2412       -136.383          48.000  
G 6  21224091.252                2       2622.681          39.000  
G31  21251573.146                2       -785.989          39.000  
G 9  20885987.786   109756608.770        3049.977          47.000  
> 2019 11 25  9  8 36.9930000  0 19                     
R17  17695408.472    94691677.515        1187.702          52.000  
R 1  17410500.633    93069060.080       -2274.010          50.000  
R 8  20439826.703                2      -4343.978          40.000  
R23  20609490.360   110246851.140       -4930.617          47.000  
R 2  18448514.500    98444731.589        2144.619          52.000  
G17  19675327.103   103394543.890       -1248.414          50.000  
R18  21403687.052                3       3595.263          36.000  
R 9  21165269.591   113021288.5702      -1156.766          39.000  
G22  19330856.350   101584335.4992      -2386.315          48.000  
G14  22231468.105                3      -3771.699          25.000  
G 3  18119362.123    95217886.474       -1259.170          52.000  
G 1  20026820.871   105241648.315       -3488.472          47.000  
G11  21078895.515   110770341.857       -4345.744          43.000  
G23  19272200.693   101276098.339        1475.331          49.000  
G 4  20199391.327   106148519.2522       2765.683          45.000  
G19  19622638.400   103117649.529        -136.400          48.000  
G 6  21223595.317   111530732.4792       2619.207          45.000  
G31  21251724.169                3       -764.209          35.000  
G 9  20885407.636   109753559.013        3050.062          47.000  
> 2019 11 25  9  8 37.9930000  0 19                     
R17  17695186.558    94690490.276        1187.867          52.000  
R 1  17410926.493    93071334.854       -2274.844          50.000  
R 8  20440636.908                3      -4344.434          38.000  
R23  20610412.325   110251782.843       -4932.169          48.000  
R 2  18448112.512    98442587.685        2143.593          51.000  
G17  19675564.758   103395792.827       -1248.024          49.000  
R18  21403009.364                2       3591.808          38.000  
R 9  21165482.339                3      -1149.683          29.000  
G22  19331310.614   101586722.9992      -2388.126          48.000  
G14  22232187.264                3      -3789.710          25.000  
G 3  18119601.876    95219146.452       -1260.227          52.000  
G 1  20027484.979   105245137.947       -3490.052          48.000  
G11  21079722.804   110774688.471       -4347.577          44.000  
G23  19271920.229   101274623.993        1473.771          49.000  
G 4  20198865.377   106145754.6602       2764.159          45.000  
G19  19622664.301   103117786.263        -136.351          48.000  
G 6  21223096.009   111528112.9012       2619.723          43.000  
G31  21251872.845                3       -783.229          34.000  
G 9  20884827.543   109750510.138        3049.093          45.000  
> 2019 11 25  9  8 38.9930000  0 18                     
R17  17694964.661    94689301.776        1189.006          52.000  
R 1  17411351.837    93073608.756       -2272.816          50.000  
R 8  20441444.312                3      -4339.112          36.000  
R23  20611334.936   110256719.574       -4941.481          46.000  
R 2  18447710.790    98440445.118        2140.114          53.000  
G17  19675802.408   103397042.198       -1250.659          49.000  
R18  21402334.678                3       3591.211          37.000  
R 9  21165699.045                3      -1148.877          40.000  
G22  19331764.983   101589110.8062      -2387.883          48.000  
G 3  18119841.694    95220406.379       -1259.703          52.000  
G 1  20028149.531   105248631.009       -3496.278          49.000  
G11  21080550.882   110779039.706       -4355.480          44.000  
G23  19271640.079   101273152.731        1468.088          48.000  
G 4  20198339.930   106142993.9392       2756.355          44.000  
G19  19622690.249   103117921.904        -135.456          46.000  
G 6  21222598.953                3       2626.904          35.000  
G31  21252020.849                2       -784.856          43.000  
G 9  20884248.013   109747465.004        3041.409          43.000  
> 2019 11 25  9  8 39.9930000  0 17                     
R17  17694742.498    94688111.483        1190.970          52.000  
R 1  17411777.069    93075880.937       -2271.431          50.000  
R 8  20442256.127                3      -4303.857          30.000  
R23  20612259.029   110261663.965       -4946.347          47.000  
R 2  18447309.968    98438305.455        2139.572          52.000  
G17  19676040.455   103398292.890       -1249.790          48.000  
R 9  21165917.962                3      -1140.527          39.000  
G22  19332219.544   101591498.6142      -2387.296          48.000  
G 3  18120081.285    95221666.090       -1259.446          52.000  
G 1  20028815.283   105252129.072       -3500.087          41.000  
G11  21081380.134   110783397.947       -4358.801          44.000  
G23  19271360.819   101271686.434        1465.449          49.000  
G 4  20197815.603   106140239.5752       2753.146          46.000  
G19  19622715.853   103118056.413        -134.513          46.000  
G 6  21222099.458                2       2630.185          36.000  
G31  21252173.359                3       -780.566          35.000  
G 9  20883669.760   109744426.252        3038.091          44.000  
> 2019 11 25  9  8 40.9930000  0 19                     
R17  17694519.689    94686920.642        1191.136          52.000  
R 1  17412202.156    93078152.621       -2271.406          49.000  
R 8  20443066.672                3      -4323.438          38.000  
R23  20613183.891   110266610.900       -4947.530          49.000  
R 2  18446909.381    98436166.678        2139.088          47.000  
G17  19676278.672   103399543.995       -1251.014          48.000  
R18  21400993.389                3       3621.221          33.000  
R 9  21166136.094                3      -1131.738          37.000  
G22  19332673.965   101593886.4942      -2387.568          49.000  
G14  22234346.178                3      -3766.094          24.000  
G 3  18120320.794    95222925.704       -1259.452          52.000  
G 1  20029481.427   105255628.663       -3500.016          49.000  
G11  21082210.132   110787758.698       -4360.863          45.000  
G23  19271082.095   101270221.798        1464.293          49.000  
G 4  20197291.137   106137487.2282       2752.205          33.000  
G19  19622741.234   103118190.451        -135.086          45.000  
G 6  21221597.066                3       2624.756          38.000  
G31  21252318.401                3       -784.228          44.000  
G 9  20883091.931                3       3036.857          34.000  
> 2019 11 25  9  8 41.9930000  0 16                     
R17  17694297.081    94685729.921        1190.309          51.000  
R 1  17412627.064    93080424.367       -2271.950          50.000  
R 8  20443874.839                3      -4340.723          37.000  
R23  20614109.045   110271559.018       -4949.478          48.000  
R 2  18446509.151                        2138.261          41.000  
G17  19676516.951   103400795.728       -1255.502          42.000  
R 9  21166349.907                3      -1140.576          33.000  
G22  19333128.434   101596274.5002      -2388.020          48.000  
G 3  18120560.495    95224185.435       -1260.163          52.000  
G 1  20030147.415   105259129.168       -3501.236          46.000  
G11  21083039.968   110792120.410       -4362.369          46.000  
G23  19270803.563   101268757.975        1463.655          47.000  
G19  19622766.755   103118324.577        -134.250          45.000  
G 6  21221099.451                3       2637.402          32.000  
G31  21252468.486                3       -779.883          39.000  
G 9  20882514.307                3       3034.630          34.000  
> 2019 11 25  9  8 42.9930000  0 17                     
R17  17694074.486                3       1202.832          42.000  
R 1  17413051.947    93082696.379       -2271.426          49.000  
R 8  20444686.069                3      -4339.551          35.000  
R23  20615034.382   110276508.791       -4950.495          48.000  
R 2  18446107.508                3       2131.275          44.000  
G17  19676752.284                3      -1253.418          45.000  
R 9  21166560.566                3      -1152.686          37.000  
G22  19333582.759   101598662.999       -2390.291          45.000  
G14  22235781.062                3      -3770.007          27.000  
G 3  18120800.457    95225445.746       -1259.976          52.000  
G 1  20030813.970   105262631.108       -3501.991          49.000  
G11  21083870.402   110796483.790       -4364.268          45.000  
G23  19270525.381   101267295.954        1460.664          45.000  
G19  19622792.520                3       -136.055          44.000  
G 6  21220598.364                2       2630.540          39.000  
G31  21252619.745                3       -770.996          37.000  
G 9  20881938.856                3       3025.927          36.000  
> 2019 11 25  9  8 43.9930000  0 17                     
R17  17693851.555                2       1192.298          46.000  
R 1  17413476.759    93084967.246       -2271.240          50.000  
R 8  20445495.934                3      -4336.475          35.000  
R23  20615960.269   110281460.213       -4952.867          49.000  
R 2  18445711.222                2       2134.022          42.000  
G17  19676997.578                3      -1259.814          40.000  
R18  21398968.387                3       3607.996          40.000  
R 9  21166773.625                2      -1134.897          38.000  
G22  19334037.363   101601050.441       -2387.791          48.000  
G 3  18121040.262    95226705.245       -1259.789          52.000  
G 1  20031480.293   105266133.673       -3503.453          48.000  
G11  21084700.906   110800848.481       -4365.546          46.000  
G23  19270247.455   101265834.656        1459.344          49.000  
G19  19622817.692                3       -129.883          39.000  
G 6  21220098.943                3       2636.684          34.000  
G31  21252776.910                3       -850.444          24.000  
G 9  20881360.032                3       3025.732          39.000  
> 2019 11 25  9  8 44.9930000  0 17                     
R17  17693628.921                3       1192.474          49.000  
R 1  17413901.222    93087237.427       -2269.558          50.000  
R 8  20446305.733                3      -4327.295          40.000  
R23  20616886.670   110286415.451       -4959.073          48.000  
R 2  18445315.866                3       2121.094          39.000  
G17  19677229.395                2      -1257.257          38.000  
R18  21398291.148                3       3614.241          38.000  
R 9  21166990.618                3      -1124.365          38.000  
G22  19334491.649   101603438.033       -2388.407          49.000  
G 3  18121280.181    95227964.777       -1259.898          52.000  
G 1  20032147.249   105269638.706       -3508.456          49.000  
G11  21085532.130   110805216.801       -4372.417          46.000  
G23  19269969.975   101264376.067        1455.534          47.000  
G19  19622844.173                3       -134.287          33.000  
G 6  21219594.845                3       2635.449          39.000  
G31  21252917.685                3       -777.148          32.000  
G 9  20880781.994                2       3026.891          42.000  
> 2019 11 25  9  8 45.9930000  0 20                     
R17  17693405.820                3       1196.436          49.000  
R 1  17414325.590    93089506.357       -2268.490          49.000  
R 8  20447114.136                3      -4329.932          33.000  
R23  20617814.734   110291379.631       -4967.628          47.000  
R 2  18444909.372                3       2131.885          43.000  
G17  19677469.903                2      -1253.014          49.000  
R18  21397611.750                2       3620.300          39.000  
R 9  21167203.053                3      -1138.623          34.000  
G22  19334946.376   101605827.140       -2390.416          49.000  
G14  22237935.339                3      -3768.697          26.000  
G 3  18121519.995    95229224.447       -1259.937          52.000  
G12  22877669.797                3       -880.379          28.000  
G 1  20032815.789   105273150.462       -3514.910          50.000  
G11  21086365.077   110809593.520       -4380.445          46.000  
G23  19269693.415   101262922.477        1451.243          47.000  
G 4  20194684.702                3       2739.767          40.000  
G19  19622867.234                2       -128.272          42.000  
G 6  21219093.540                3       2640.723          39.000  
G31  21253074.048                2       -778.939          36.000  
G 9  20880209.347                3       3024.945          44.000  
> 2019 11 25  9  8 46.9930000  0 19                     
R17  17693181.877                3       1205.713          43.000  
R 1  17414750.062    93091775.209       -2270.222          50.000  
R 8  20447923.796                3      -4330.225          40.000  
R23  20618744.058   110296350.375       -4973.018          45.000  
R 2  18444507.480                3       2137.695          47.000  
G17  19677710.040                3      -1251.123          49.000  
R18  21396931.419                3       3641.211          36.000  
R 9  21167415.208                3      -1130.371          34.000  
G22  19335401.735   101608219.069       -2394.485          48.000  
G 3  18121759.394    95230484.646       -1261.234          52.000  
G12  22877842.559                3       -888.436          28.000  
G 1  20033485.397   105276668.442       -3521.421          48.000  
G11  21087199.119   110813976.553       -4385.975          46.000  
G23  19269417.209   101261471.814        1450.238          48.000  
G 4  20194160.402   106121029.1672       2736.583          48.000  
G19  19622891.603                3       -122.326          44.000  
G 6  21218591.755                2       2641.086          33.000  
G31  21253213.903                3       -783.203          37.000  
G 9  20879631.784   109723205.1432       3022.871          48.000  
> 2019 11 25  9  8 47.9930000  0 19                     
R17  17692956.944    94678559.2852       1207.357          50.000  
R 1  17415175.027    93094046.637       -2272.636          50.000  
R 8  20448731.863                3      -4338.721          43.000  
R23  20619674.547   110301327.432       -4980.384          44.000  
R 2  18444106.374                2       2143.421          49.000  
G17  19677946.333                3      -1245.264          40.000  
R18  21396258.272                3       3622.949          32.000  
R 9  21167626.605                3      -1133.881          41.000  
G22  19335857.949   101610617.890       -2402.668          47.000  
G 3  18121999.627    95231747.136       -1263.990          52.000  
G12  22878015.198                3       -904.639          28.000  
G 1  20034156.432   105280195.100       -3531.948          49.000  
G11  21088034.356   110818366.064       -4393.508          44.000  
G23  19269141.430   101260023.050        1447.695          48.000  
G 4  20193636.791   106118292.9472       2736.318          46.000  
G19  19622914.236                3       -107.227          41.000  
G 6  21218085.895                3       2657.739          35.000  
G31  21253358.931                2       -794.929          42.000  
G 9  20879057.031   109720182.0932       3023.311          48.000  
> 2019 11 25  9  8 48.9930000  0 18                     
R17  17692730.409    94677347.1822       1214.545          49.000  
R 1  17415600.551    93096320.551       -2274.082          50.000  
R 8  20449542.840   109506334.9912      -4345.843          47.000  
R23  20620607.052   110306314.602       -4993.919          46.000  
R 2  18443703.283                2       2152.911          46.000  
G17  19678179.106                3      -1233.643          42.000  
R 9  21167840.884                3      -1120.274          39.000  
G22  19336315.895   101613024.843       -2410.616          48.000  
G 3  18122240.453    95233012.215       -1265.962          52.000  
G12  22878187.480                3       -885.384          28.000  
G 1  20034829.976   105283733.654       -3544.742          48.000  
G11  21088871.752   110822765.798       -4406.148          45.000  
G23  19268866.799   101258578.026        1442.660          50.000  
G 4  20193115.710   106115558.7952       2731.102          45.000  
G19  19622934.443                2       -103.055          43.000  
G 6  21217575.153                2       2675.967          40.000  
G31  21253513.191   111687955.1932       -805.068          38.000  
G 9  20878484.227   109717159.3912       3021.066          38.000  
> 2019 11 25  9  8 49.9930000  0 17                     
R17  17692502.924                3       1222.754          45.000  
R 1  17416026.000    93098594.856       -2273.982          48.000  
R 8  20450354.445   109510682.1372      -4349.040          47.000  
R23  20621544.120                3      -5017.872          36.000  
R 2  18443300.575    98416906.6092       2155.584          53.000  
G17  19678414.191   103410764.2952      -1222.697          47.000  
R 9  21168049.026                3      -1128.811          31.000  
G22  19336775.180   101615438.477       -2416.971          49.000  
G14  22240799.221                2      -3776.775          39.000  
G 3  18122481.367    95234278.829       -1266.675          51.000  
G 1  20035505.557   105287285.270       -3558.113          47.000  
G11  21089711.836   110827178.605       -4418.796          39.000  
G23  19268593.101   101257138.822        1436.797          49.000  
G19  19622954.637                3        -99.707          37.000  
G 6  21217063.390                3       2692.236          37.000  
G31  21253665.109   111688763.9203       -808.553          46.000  
G 9  20877909.871                3       3017.041          34.000  
> 2019 11 25  9  8 50.9930000  0 17                     
R17  17692273.755    94674903.6652       1233.030          50.000  
R 1  17416451.083    93100868.709       -2272.746          48.000  
R 8  20451166.430   109515032.1472      -4350.654          48.000  
R23  20622480.115                3      -4981.104          33.000  
R 2  18442895.900    98414751.1563       2160.419          52.000  
G17  19678645.406   103411983.1192      -1215.343          51.000  
R18  21394202.405                2       3673.047          27.000  
R 9  21168260.405                2      -1118.589          37.000  
G22  19337235.491   101617858.523       -2423.098          47.000  
G14  22241515.919   116879965.5812      -3776.946          39.000  
G 3  18122722.581    95235546.406       -1268.035          51.000  
G 1  20036184.388   105290850.319       -3571.647          48.000  
G23  19268320.258   101255705.310        1430.101          49.000  
G 4  20192078.347   106110087.3443       2718.120          42.000  
G19  19622969.741                2        -77.366          45.000  
G31  21253821.458   111689575.9582       -814.189          48.000  
G 9  20877335.541                2       3015.129          35.000  
> 2019 11 25  9  8 51.9930000  0 17                     
R17  17692042.509    94673665.4482       1241.574          53.000  
R 1  17416876.053    93103140.735       -2271.330          49.000  
R 8  20451978.437   109519381.9052      -4349.182          37.000  
R23  20623414.099                3      -5054.140          29.000  
R 2  18442490.793    98412590.1402       2161.309          53.000  
G17  19678875.684   103413195.8972      -1210.646          51.000  
R18  21393515.831                3       3667.135          27.000  
R 9  21168479.449                3      -1089.990          32.000  
G22  19337696.709   101620283.501       -2427.312          48.000  
G14  22242235.897   116883741.0012      -3774.418          36.000  
G 3  18122964.074    95236814.178       -1268.137          51.000  
G 1  20036865.662                3      -3588.034          41.000  
G23  19268048.924   101254279.491        1421.721          49.000  
G 4  20191562.946   106107378.5263       2710.637          46.000  
G19  19622982.959   103119470.5782        -68.705          45.000  
G31  21253975.592   111690390.4432       -815.300          42.000  
G 9  20876761.965   109708123.6943       3004.814          48.000  
> 2019 11 25  9  8 52.9930000  0 15                     
R17  17691810.028    94672421.5183       1242.361          45.000  
R 1  17417300.704    93105411.261       -2271.030          49.000  
R 8  20452790.055                3      -4347.314          38.000  
R23  20624361.445                3      -5040.342          33.000  
R 2  18442085.399    98410428.3332       2161.434          53.000  
G17  19679106.458   103414405.4742      -1208.070          48.000  
R 9  21168691.460                3      -1149.038          28.000  
G22  19338158.699   101622711.622       -2429.863          48.000  
G 3  18123205.241    95238082.230       -1268.923          51.000  
G 1  20037548.768   105298029.0222      -3592.954          47.000  
G23  19267778.956   101252859.766        1417.450          50.000  
G 4  20191047.815   106104670.1462       2707.158          39.000  
G19  19622996.012                3        -73.486          32.000  
G31  21254133.926   111691205.8742       -815.146          39.000  
G 9  20876192.216   109705122.5172       2999.564          42.000  
> 2019 11 25  9  8 53.9930000  0 16                     
R17  17691577.159                3       1248.193          41.000  
R 1  17417725.643    93107682.445       -2271.011          46.000  
R 8  20453601.359                3      -4303.819          27.000  
R23  20625306.976                3      -5065.046          33.000  
R 2  18441679.760    98408265.6712       2163.461          52.000  
G17  19679335.693   103415613.1622      -1205.996          48.000  
R18  21392128.386                3       3742.711          27.000  
G22  19338621.448   101625142.812       -2431.769          48.000  
G 3  18123446.420    95239351.432       -1269.357          50.000  
G 6  21214998.986                3       2743.848          34.000  
G 1  20038232.537   105301624.1502      -3597.620          42.000  
G23  19267509.241   101251443.337        1415.898          50.000  
G 4  20190534.993   106101977.2323       2703.641          38.000  
G19  19623008.332                3        -58.301          41.000  
G31  21254291.842                3       -823.555          35.000  
G 9  20875625.249                3       2989.307          39.000  
> 2019 11 25  9  8 54.9930000  0 14                     
R17  17691344.221                2       1247.399          50.000  
R 1  17418150.896                3      -2275.239          39.000  
R 8  20454416.494                3      -4353.369          35.000  
R23  20626253.240                3      -5049.189          36.000  
R 2  18441274.474    98406102.2442       2162.596          53.000  
G17  19679565.068   103416819.8742      -1208.377          49.000  
G22  19339084.403   101627575.319       -2431.798          43.000  
G 3  18123688.603                3      -1280.713          38.000  
G 1  20038917.397   105305221.1053      -3596.999          42.000  
G11  21093948.959                3      -4458.740          38.000  
G23  19267239.980   101250027.969        1415.175          50.000  
G 4  20190019.090   106099266.3602       2704.368          45.000  
G19  19623018.457                3        -71.191          37.000  
G 9  20875050.409   109699129.5312       2997.682          47.000  
> 2019 11 25  9  8 55.9930000  0 17                     
R17  17691111.116                2       1249.083          50.000  
R 1  17418576.607                3      -2271.533          43.000  
R 8  20455230.211                3      -4349.931          39.000  
R23  20627195.884                3      -5050.928          42.000  
R 2  18440869.062    98403938.9592       2163.685          52.000  
G17  19679794.787   103418026.7892      -1203.204          47.000  
R18  21390732.290                3       3719.978          31.000  
R 9  21169317.618                3      -1105.422          27.000  
G22  19339547.152   101630008.041       -2431.573          43.000  
G14  22245111.318                3      -3768.900          26.000  
G 3  18123930.088    95241894.8952      -1269.465          50.000  
G 1  20039601.354   105308818.4512      -3597.604          47.000  
G11  21094796.468                3      -4479.346          34.000  
G23  19266970.723   101248612.620        1416.073          49.000  
G 4  20189504.937   106096562.0752       2703.482          42.000  
G19  19623032.797                3        -64.453          39.000  
G 9  20874481.121                3       2997.656          38.000  
> 2019 11 25  9  8 56.9930000  0 15                     
R17  17690878.261    94667435.5532       1245.802          50.000  
R 1  17419001.987                2      -2276.243          41.000  
R 8  20456043.090                2      -4348.975          36.000  
R23  20628155.153                3      -5103.418          31.000  
R 2  18440463.645    98401774.1302       2165.110          52.000  
G17  19680024.567   103419232.6972      -1205.867          51.000  
G22  19340010.272   101632442.456       -2434.385          37.000  
G 3  18124172.083                3      -1274.609          40.000  
G 1  20040286.114   105312416.8232      -3599.024          47.000  
G11  21095650.495                3      -4491.309          32.000  
G23  19266701.069   101247197.010        1415.526          49.000  
G 4  20188989.946                3       2706.664          37.000  
G19  19623042.983                3        -58.887          42.000  
G31  21254757.121                3       -819.727          41.000  
G 9  20873909.614                3       2998.291          42.000  
> 2019 11 25  9  8 57.9930000  0 15                     
R17  17690645.828    94666190.5262       1243.649          49.000  
R 1  17419427.672    93116781.5852      -2277.316          44.000  
R 8  20456855.083                3      -4351.172          35.000  
R23  20629101.967                3      -5049.429          26.000  
R 2  18440057.221    98399606.8422       2169.362          51.000  
G17  19680253.706   103420437.1772      -1204.217          49.000  
G22  19340474.264   101634878.1113      -2437.849          48.000  
G 3  18124414.336    95244439.4342      -1272.711          51.000  
G 1  20040970.572   105316014.2122      -3595.449          38.000  
G11  21096500.050                3      -4454.980          26.000  
G23  19266431.228   101245779.059        1420.033          48.000  
G 4  20188475.086                3       2702.539          34.000  
G19  19623053.829                3        -61.182          39.000  
G31  21254916.978                3       -826.496          37.000  
G 9  20873338.385                3       3006.461          38.000  
> 2019 11 25  9  8 58.9930000  0 14                     
R17  17690414.019    94664951.4493       1236.693          43.000  
R 1  17419854.024    93119059.8913      -2284.280          43.000  
R 8  20457668.757                3      -4374.500          26.000  
R23  20630033.084                2      -5033.867          30.000  
R 2  18439650.766    98397436.4941       2170.415          46.000  
G17  19680482.818   103421641.0392      -1204.469          51.000  
G22  19340938.545   101637317.4262      -2440.801          48.000  
G 3  18124656.754    95245714.6062      -1277.061          52.000  
G 1  20041653.827                3      -3592.742          41.000  
G11  21097340.592                3      -4448.193          34.000  
G23  19266160.697   101244357.228        1423.380          49.000  
G19  19623065.551                2        -65.662          42.000  
G31  21255072.360                3       -838.318          39.000  
G 9  20872763.475                3       3017.383          41.000  
> 2019 11 25  9  8 59.9930000  0 15                     
R17  17690182.359    94663714.0442       1236.337          47.000  
R 1  17420281.498    93121344.8642      -2285.656          49.000  
R 8  20458485.418                3      -4374.414          35.000  
R23  20630969.703                3      -4987.781          30.000  
R 2  18439243.818    98395265.639        2170.284          51.000  
G17  19680711.966   103422845.4352      -1205.455          51.000  
G22  19341403.148   101639758.5192      -2441.292          49.000  
G 3  18124899.644    95246991.9122      -1277.828          52.000  
G 1  20042337.832                3      -3591.748          38.000  
G23  19265889.634   101242932.925        1424.286          51.000  
G 6  21211869.590                3       2729.029          33.000  
G 4  20187438.678                3       2721.191          40.000  
G19  19623079.428                3        -68.785          39.000  
G31  21255235.506                3       -831.738          30.000  
G 9  20872191.221                3       3014.355          40.000  
> 2019 11 25  9  9  0.9930000  0 15                     
R17  17689951.026    94662474.3383       1237.844          47.000  
R 1  17420709.063    93123630.2362      -2286.086          49.000  
R 8  20459303.231                3      -4371.826          33.000  
R23  20631913.101                3      -5036.136          33.000  
R 2  18438836.857    98393093.770        2173.082          52.000  
G17  19680941.035   103424049.431       -1202.996          49.000  
G22  19341867.324   101642199.1242      -2441.141          48.000  
G 3  18125142.725    95248269.0452      -1277.272          53.000  
G 1  20043021.379                2      -3591.004          47.000  
G11  21099038.328                3      -4437.330          31.000  
G23  19265618.297   101241507.019        1426.222          50.000  
G 4  20186917.078                2       2721.571          35.000  
G19  19623090.915                3        -60.791          38.000  
G31  21255394.508                3       -847.900          40.000  
G 9  20871614.766                2       3016.113          46.000  
> 2019 11 25  9  9  1.9930000  0 15                     
R17  17689719.671    94661235.9563       1238.492          49.000  
R 1  17421136.305    93125915.6812      -2285.672          46.000  
R 8  20460121.088                3      -4361.100          36.000  
R23  20632861.729                3      -5105.327          28.000  
R 2  18438429.417    98390920.063        2174.175          51.000  
G17  19681169.772   103425251.601       -1201.550          51.000  
G22  19342332.067   101644640.4942      -2442.559          48.000  
G 3  18125385.685    95249545.9592      -1277.078          52.000  
G 1  20043703.002                3      -3591.256          44.000  
G11  21099902.419                3      -4439.773          30.000  
G23  19265347.072   101240080.662        1425.725          51.000  
G 4  20186403.623                2       2724.339          41.000  
G19  19623102.545                2        -65.058          45.000  
G31  21255551.966                3       -842.432          41.000  
G 9  20871041.326                3       3026.367          44.000  
> 2019 11 25  9  9  2.9930000  0 15                     
R17  17689487.980    94659995.7302       1238.770          53.000  
R 1  17421563.705    93128202.3962      -2286.573          50.000  
R 8  20460932.484                3      -4247.852          28.000  
R23  20633794.112                3      -5035.758          33.000  
R 2  18438021.801    98388745.744        2174.966          52.000  
G17  19681398.257   103426453.082       -1200.679          50.000  
R 9  21170770.942                3      -1083.333          26.000  
G22  19342796.993   101647083.8532      -2443.446          49.000  
G 3  18125628.984    95250824.0372      -1277.985          52.000  
G 6  21210313.236                3       2732.373          41.000  
G 1  20044388.359   105333963.1852      -3592.184          49.000  
G23  19265075.774   101238655.399        1425.004          50.000  
G 4  20185882.071   106077519.1082       2723.129          47.000  
G19  19623116.628   103120163.6832        -64.042          47.000  
G31  21255714.083                3       -843.476          29.000  
> 2019 11 25  9  9  3.9930000  0 13                     
R17  17689256.429    94658757.1792       1237.576          52.000  
R 1  17421991.741    93130489.8632      -2289.115          49.000  
R 8  20461738.837                3      -4351.078          28.000  
R23  20634736.428                3      -5024.756          36.000  
R 2  18437614.212    98386570.701        2174.440          51.000  
G17  19681626.606   103427653.794       -1201.374          51.000  
G22  19343262.325   101649528.4892      -2445.735          48.000  
G 3  18125872.075    95252102.6912      -1279.705          52.000  
G 1  20045071.744                3      -3594.101          44.000  
G23  19264804.536   101237230.741        1423.690          51.000  
G19  19623127.451   103120227.5292        -64.861          45.000  
G31  21255873.346   111700367.4512       -847.801          47.000  
G 9  20869892.744                2       3018.823          40.000  
> 2019 11 25  9  9  4.9930000  0 14                     
R17  17689025.030    94657519.3612       1236.870          51.000  
R 1  17422419.887    93132778.2962      -2288.740          48.000  
R 8  20462566.082                3      -4365.436          32.000  
R23  20635685.637                3      -5111.866          29.000  
R 2  18437206.645    98384396.093        2174.858          52.000  
G17  19681855.417   103428854.917       -1201.140          51.000  
G22  19343727.386   101651974.2472      -2445.925          49.000  
G 3  18126115.636    95253382.3022      -1279.466          52.000  
G 4  20184850.881                3       2726.611          35.000  
G 1  20045757.041   105341158.7622      -3596.955          46.000  
G23  19264533.809   101235807.232        1423.481          50.000  
G19  19623140.809   103120300.5633        -63.542          44.000  
G31  21256036.584                3       -848.779          40.000  
G 9  20869319.984                3       3020.654          36.000  
> 2019 11 25  9  9  5.9930000  0 16                     
R17  17688793.985    94656282.4712       1236.573          48.000  
R 1  17422848.272    93135067.7842      -2289.629          49.000  
R 8  20463387.350                3      -4374.567          35.000  
R23  20636615.917                3      -5038.868          38.000  
R 2  18436799.527    98382221.942        2173.861          51.000  
G17  19682084.133   103430056.695       -1202.191          51.000  
G22  19344193.259   101654420.8712      -2446.610          48.000  
G 6  21208753.514                3       2716.650          35.000  
G 3  18126359.263    95254662.8812      -1280.698          52.000  
G 4  20184330.062   106069370.3142       2719.602          42.000  
G 1  20046440.600   105344755.6303      -3596.409          48.000  
G23  19264262.877   101234384.515        1421.671          50.000  
G14  22252320.173                3      -3793.943          26.000  
G19  19623152.671   103120365.9082        -62.978          44.000  
G31  21256198.557                3       -842.725          41.000  
G 9  20868745.610                3       3016.553          38.000  
> 2019 11 25  9  9  6.9930000  0 17                     
R17  17688562.604    94655045.1622       1236.861          51.000  
R 1  17423276.278    93137356.6211      -2290.165          49.000  
R 8  20464205.626                3      -4369.781          33.000  
R23  20637556.436                3      -5039.356          36.000  
R 2  18436392.287    98380048.120        2172.857          52.000  
G17  19682312.775   103431258.503       -1202.558          51.000  
R 9  21171630.985                3      -1174.639          27.000  
G22  19344658.735   101656867.818       -2447.802          48.000  
G 3  18126602.837    95255943.498       -1281.112          52.000  
G 4  20183811.581                2       2718.571          35.000  
G 1  20047126.442                3      -3598.593          46.000  
G23  19263992.621   101232962.960        1420.477          50.000  
G11  21104112.903                3      -4454.492          39.000  
G14  22253063.653                3      -3788.450          25.000  
G19  19623164.991   103120430.3092        -65.194          43.000  
G31  21256361.512                3       -841.309          37.000  
G 9  20868173.190                3       3011.377          40.000  
> 2019 11 25  9  9  7.9930000  0 15                     
R17  17688331.388    94653808.5482       1237.886          51.000  
R 1  17423704.785    93139647.052       -2290.220          44.000  
R 8  20465022.143                3      -4369.824          39.000  
R23  20638515.831                3      -5149.398          22.000  
R 2  18435985.003    98377875.561        2172.271          52.000  
G17  19682541.769   103432461.337       -1202.859          51.000  
R18  21382425.912                3       3703.462          25.000  
G22  19345124.494   101659315.919       -2447.173          48.000  
G 3  18126846.988    95257225.283       -1281.106          52.000  
G 1  20047810.953   105351956.6282      -3599.745          45.000  
G23  19263722.479   101231543.323        1424.569          47.000  
G14  22253774.518                3      -3788.450          27.000  
G19  19623177.350   103120495.1552        -65.357          47.000  
G31  21256522.010                3       -840.869          33.000  
G 9  20867598.742                3       3031.055          34.000  
> 2019 11 25  9  9  8.9930000  0 16                     
R17  17688100.478    94652572.5392       1236.485          52.000  
R 1  17424133.550    93141937.317       -2290.285          49.000  
R 8  20465836.475                3      -4381.934          33.000  
R23  20639453.479                3      -5036.255          28.000  
R 2  18435577.794    98375703.136        2172.160          52.000  
G17  19682770.764   103433664.576       -1203.512          51.000  
R 9  21172058.035                3      -1138.975          28.000  
G22  19345590.328   101661763.778       -2447.926          49.000  
G 6  21207199.136                3       2728.857          36.000  
G 3  18127090.628    95258506.953       -1281.624          52.000  
G 1  20048496.214                3      -3600.231          39.000  
G 4  20182774.549                3       2717.424          46.000  
G23  19263452.266   101230123.578        1420.168          50.000  
G19  19623189.936   103120560.9062        -67.860          46.000  
G31  21256684.123                3       -849.316          42.000  
G 9  20867022.157   109656941.4322       3015.383          43.000  
> 2019 11 25  9  9  9.9930000  0 14                     
R17  17687869.586    94651336.3482       1236.969          53.000  
R 1  17424561.875    93144227.596       -2289.870          49.000  
R 8  20466656.552                3      -4373.633          40.000  
R23  20640392.467                3      -5045.459          32.000  
R 2  18435170.815    98373530.745        2172.669          52.000  
G17  19682999.537   103434867.757       -1202.961          51.000  
G22  19346056.449   101664211.687       -2447.244          48.000  
G 3  18127334.686    95259788.530       -1281.221          52.000  
G 1  20049180.529   105359154.5572      -3600.901          45.000  
G 4  20182262.507                3       2716.351          40.000  
G23  19263182.469   101228704.293        1417.714          50.000  
G19  19623202.348   103120626.2032        -65.091          47.000  
G31  21256846.584                3       -845.361          31.000  
G 9  20866449.606                3       3001.562          38.000  
> 2019 11 25  9  9 10.9930000  0 16                     
R17  17687638.471    94650098.9121       1236.213          53.000  
R 1  17424990.155    93146517.551       -2290.597          50.000  
R 8  20467471.216                3      -4378.857          39.000  
R23  20641333.343                3      -5044.050          41.000  
R 2  18434763.837    98371358.338        2171.436          52.000  
G17  19683228.592   103436070.613       -1203.658          51.000  
R18  21380325.316                3       3733.032          31.000  
G22  19346522.266   101666659.884       -2449.097          48.000  
G 6  21206144.244                3       2738.525          39.000  
G 3  18127578.453    95261069.956       -1282.397          52.000  
G 1  20049867.575   105362756.8862      -3603.114          46.000  
G 4  20181746.112                3       2710.840          39.000  
G23  19262912.191   101227285.902        1417.158          49.000  
G19  19623214.554   103120690.7692        -65.329          48.000  
G31  21257008.509                2       -851.274          43.000  
