% program   : RTKPOST ver.2.4.3 b33
% inp file  : D:\Bureau\Python OC\M2GNSS\gnss-velocity-estimation\forest_env_matin.obs
% inp file  : D:\Bureau\Python OC\M2GNSS\gnss-velocity-estimation\forest_env_matin.nav
% obs start : 2019/11/25 09:08:24.0 GPST (week2081 119304.0s)
% obs end   : 2019/11/25 09:51:22.0 GPST (week2081 121882.0s)
% pos mode  : single
% elev mask : 15.0 deg
% ionos opt : broadcast
% tropo opt : saastamoinen
% ephemeris : broadcast
% navi sys  : gps glonass galileo
%
% (x/y/z-ecef=WGS84,Q=1:fix,2:float,3:sbas,4:dgps,5:single,6:ppp,ns=# of satellites)
%  GPST                      x-ecef(m)      y-ecef(m)      z-ecef(m)   Q  ns   sdx(m)   sdy(m)   sdz(m)  sdxy(m)  sdyz(m)  sdzx(m) age(s)  ratio
2019/11/25 09:08:24.000   4063063.4670    247121.7264   4893921.0824   5  16   2.7180   1.5965   3.1810   0.7695   0.8083   2.4257   0.00    0.0
2019/11/25 09:08:25.000   4063079.7990    247124.9268   4893908.3296   5  15   3.1724   1.6430   3.2935  -0.2045   0.5682   2.6982   0.00    0.0
2019/11/25 09:08:26.000   4063097.2319    247126.6143   4893895.8947   5  16   2.7182   1.5966   3.1811   0.7703   0.8091   2.4258   0.00    0.0
2019/11/25 09:08:27.000   4063114.2049    247129.5967   4893884.0386   5  16   2.7183   1.5966   3.1812   0.7707   0.8094   2.4258   0.00    0.0
2019/11/25 09:08:28.000   4063129.9141    247132.2262   4893870.5370   5  16   2.7183   1.5967   3.1812   0.7712   0.8098   2.4258   0.00    0.0
2019/11/25 09:08:29.000   4063146.1263    247135.1829   4893857.8453   5  16   2.7184   1.5967   3.1813   0.7716   0.8102   2.4259   0.00    0.0
2019/11/25 09:08:30.000   4063158.1395    247138.9865   4893842.9068   5  15   3.1729   1.6430   3.2940  -0.1926   0.5715   2.6986   0.00    0.0
2019/11/25 09:08:31.000   4063176.6164    247141.3626   4893831.7815   5  15   3.1730   1.6429   3.2941  -0.1901   0.5722   2.6987   0.00    0.0
2019/11/25 09:08:32.000   4063189.8454    247144.4022   4893817.9731   5  14   3.8860   1.9104   3.4685   1.4669   1.1775   3.1175   0.00    0.0
2019/11/25 09:08:33.000   4063207.6762    247146.3710   4893806.4510   5  14   4.0440   1.8806   3.5275  -1.5260  -0.9084   3.2319   0.00    0.0
2019/11/25 09:08:34.000   4063219.8886    247149.5029   4893791.8347   5  16   2.7188   1.5969   3.1816   0.7736   0.8122   2.4260   0.00    0.0
2019/11/25 09:08:35.000   4063237.0679    247152.4709   4893780.2513   5  15   3.1734   1.6429   3.2945  -0.1799   0.5749   2.6990   0.00    0.0
2019/11/25 09:08:36.000   4063248.7605    247154.9546   4893765.6855   5  15   3.1735   1.6429   3.2946  -0.1772   0.5755   2.6991   0.00    0.0
2019/11/25 09:08:37.000   4063264.6800    247158.4161   4893753.3065   5  16   2.7190   1.5970   3.1818   0.7748   0.8133   2.4261   0.00    0.0
2019/11/25 09:08:38.000   4063279.0132    247161.0404   4893740.4745   5  16   2.7191   1.5971   3.1819   0.7752   0.8137   2.4262   0.00    0.0
2019/11/25 09:08:39.000   4063294.5682    247164.1645   4893728.9444   5  15   3.1737   1.6429   3.2949  -0.1690   0.5775   2.6993   0.00    0.0
2019/11/25 09:08:40.000   4063310.2181    247165.7984   4893718.9802   5  15   3.1738   1.6429   3.2950  -0.1662   0.5782   2.6993   0.00    0.0
2019/11/25 09:08:41.000   4063320.8906    247167.9907   4893707.3756   5  16   2.7193   1.5972   3.1821   0.7764   0.8149   2.4262   0.00    0.0
2019/11/25 09:08:42.000   4063334.7103    247170.8767   4893697.2484   5  15   3.1740   1.6429   3.2952  -0.1603   0.5795   2.6995   0.00    0.0
2019/11/25 09:08:43.000   4063348.2372    247172.2094   4893688.1530   5  16   2.7194   1.5973   3.1822   0.7772   0.8157   2.4263   0.00    0.0
2019/11/25 09:08:44.000   4063364.9494    247173.8457   4893679.4959   5  15   3.1742   1.6429   3.2954  -0.1543   0.5808   2.6996   0.00    0.0
2019/11/25 09:08:45.000   4063371.4392    247176.0537   4893666.7550   5  15   3.1743   1.6428   3.2955  -0.1512   0.5815   2.6997   0.00    0.0
2019/11/25 09:08:46.000   4063386.2449    247175.9793   4893661.2490   5  16   2.7197   1.5974   3.1824   0.7785   0.8168   2.4264   0.00    0.0
2019/11/25 09:08:47.000   4063393.2664    247178.0997   4893650.8192   5  15   3.1745   1.6428   3.2957  -0.1448   0.5828   2.6998   0.00    0.0
2019/11/25 09:08:48.000   4063399.6135    247177.2971   4893641.7737   5  15   3.1746   1.6428   3.2957  -0.1415   0.5834   2.6999   0.00    0.0
2019/11/25 09:08:49.000   4063407.9477    247171.4147   4893635.7194   5  15   3.1746   1.6428   3.2958  -0.1381   0.5841   2.7000   0.00    0.0
2019/11/25 09:08:50.000   4063414.8452    247164.7248   4893630.0526   5  16   2.7200   1.5976   3.1827   0.7801   0.8184   2.4265   0.00    0.0
2019/11/25 09:08:51.000   4063421.2138    247154.6393   4893625.9842   5  14   3.1438   1.9321   3.5809   1.4945   1.0149   2.6808   0.00    0.0
2019/11/25 09:08:52.000   4063424.9320    247141.9710   4893621.3602   5  14   3.1439   1.9322   3.5811   1.4947   1.0150   2.6808   0.00    0.0
2019/11/25 09:08:53.000   4063430.0653    247128.1193   4893623.4008   5  13   3.8968   1.9331   3.8052   1.4488   0.9771   3.1855   0.00    0.0
2019/11/25 09:08:54.000   4063434.8711    247113.9052   4893626.5724   5  14   3.1924   1.6635   3.6600  -0.3178  -0.2661   2.7963   0.00    0.0
2019/11/25 09:08:55.000   4063436.5719    247096.3381   4893625.1963   5  13   5.5701   1.9795   3.9918   0.3732   0.6247   4.1945   0.00    0.0
2019/11/25 09:08:56.000   4063437.6660    247082.7881   4893623.6821   5  14   3.5116   1.9469   3.3526   1.2995   1.0802   2.8680   0.00    0.0
2019/11/25 09:08:57.000   4063437.7257    247065.9895   4893626.3044   5  14   3.8869   1.9124   3.4683   1.4776   1.1844   3.1160   0.00    0.0
2019/11/25 09:08:58.000   4063441.2450    247049.1864   4893626.5858   5  14   3.8870   1.9125   3.4683   1.4780   1.1846   3.1159   0.00    0.0
2019/11/25 09:08:59.000   4063441.5466    247033.7357   4893617.5813   5  14   3.8870   1.9125   3.4683   1.4785   1.1849   3.1158   0.00    0.0
2019/11/25 09:09:00.000   4063446.9635    247016.7910   4893614.2467   5  14   3.1931   1.6633   3.6618  -0.3093  -0.2573   2.7974   0.00    0.0
2019/11/25 09:09:01.000   4063454.0213    247000.1751   4893613.9989   5  14   3.8871   1.9127   3.4683   1.4793   1.1854   3.1157   0.00    0.0
2019/11/25 09:09:03.000   4063461.7679    246967.4108   4893604.1214   5  13   3.1974   1.7067   4.3229  -0.1801   0.9026   2.8622   0.00    0.0
2019/11/25 09:09:04.000   4063463.6420    246950.3636   4893598.9798   5  13   3.8974   1.9338   3.8075   1.4533   0.9807   3.1860   0.00    0.0
2019/11/25 09:09:05.000   4063473.1328    246932.3551   4893600.9135   5  13   3.8975   1.9339   3.8077   1.4537   0.9810   3.1861   0.00    0.0
2019/11/25 09:09:06.000   4063474.8565    246915.0463   4893593.0364   5  15   2.7272   1.6139   3.5239   0.7600   0.5841   2.4832   0.00    0.0
2019/11/25 09:09:07.000   4063489.4203    246896.6293   4893596.8843   5  15   3.1427   1.9129   3.2664   1.5071   1.2032   2.6528   0.00    0.0
2019/11/25 09:09:08.000   4063487.9822    246878.2871   4893593.3851   5  14   3.1443   1.9333   3.5840   1.4980   1.0176   2.6807   0.00    0.0
2019/11/25 09:09:09.000   4063495.4182    246861.4301   4893589.4016   5  14   3.1942   1.6631   3.6645  -0.2961  -0.2434   2.7992   0.00    0.0
2019/11/25 09:09:10.000   4063498.0533    246842.2725   4893585.3650   5  13   3.8978   1.9342   3.8087   1.4557   0.9826   3.1863   0.00    0.0
2019/11/25 09:09:11.000   4063497.2656    246821.8014   4893580.3384   5  14   3.1944   1.6631   3.6651  -0.2930  -0.2402   2.7995   0.00    0.0
2019/11/25 09:09:12.000   4063506.0957    246805.5062   4893578.0803   5  14   3.1444   1.9336   3.5847   1.4988   1.0182   2.6807   0.00    0.0
2019/11/25 09:09:13.000   4063507.4437    246786.0356   4893575.7457   5  14   3.1947   1.6631   3.6657  -0.2900  -0.2370   2.7999   0.00    0.0
2019/11/25 09:09:14.000   4063511.6519    246768.9923   4893573.5256   5  15   2.7279   1.6142   3.5258   0.7631   0.5886   2.4842   0.00    0.0
2019/11/25 09:09:15.000   4063513.8638    246749.2991   4893573.7162   5  16   2.7217   1.5987   3.1842   0.7901   0.8279   2.4271   0.00    0.0
2019/11/25 09:09:16.000   4063517.4147    246730.4423   4893569.7613   5  15   3.1770   1.6426   3.2982   0.0814   0.6015   2.7017   0.00    0.0
2019/11/25 09:09:17.000   4063520.8837    246711.1713   4893570.0847   5  14   3.1952   1.6630   3.6669  -0.2838  -0.2304   2.8007   0.00    0.0
2019/11/25 09:09:18.000   4063522.6026    246691.5297   4893569.2843   5  13   3.8982   1.9348   3.8103   1.4589   0.9852   3.1866   0.00    0.0
2019/11/25 09:09:19.000   4063526.7529    246672.8270   4893568.5415   5  13   3.8983   1.9348   3.8105   1.4593   0.9855   3.1867   0.00    0.0
2019/11/25 09:09:20.000   4063527.8475    246654.2607   4893567.8544   5  15   3.1429   1.9140   3.2662   1.5100   1.2050   2.6517   0.00    0.0
2019/11/25 09:09:21.000   4063530.3699    246634.1247   4893565.2938   5  15   2.7285   1.6144   3.5276   0.7658   0.5925   2.4850   0.00    0.0
2019/11/25 09:09:22.000   4063535.2597    246616.7971   4893565.9885   5  13   3.9089   2.0208   3.8203   1.5742   1.5671   3.2173   0.00    0.0
2019/11/25 09:09:23.000   4063535.6367    246600.7808   4893560.2834   5  15   3.1429   1.9142   3.2661   1.5107   1.2054   2.6514   0.00    0.0
2019/11/25 09:09:24.000   4063540.5582    246586.5495   4893558.4008   5  15   3.1429   1.9143   3.2661   1.5109   1.2056   2.6513   0.00    0.0
2019/11/25 09:09:25.000   4063547.0885    246572.7812   4893553.5826   5  16   2.7224   1.5991   3.1848   0.7941   0.8317   2.4273   0.00    0.0
2019/11/25 09:09:26.000   4063553.2551    246561.0295   4893552.1446   5  16   2.7225   1.5992   3.1849   0.7945   0.8321   2.4274   0.00    0.0
2019/11/25 09:09:27.000   4063560.6569    246552.5946   4893545.9917   5  16   2.7226   1.5992   3.1849   0.7949   0.8325   2.4274   0.00    0.0
2019/11/25 09:09:28.000   4063563.9517    246542.5450   4893541.0341   5  15   3.1430   1.9147   3.2660   1.5118   1.2061   2.6509   0.00    0.0
2019/11/25 09:09:29.000   4063572.1747    246535.7713   4893537.2107   5  16   2.7227   1.5993   3.1851   0.7957   0.8332   2.4274   0.00    0.0
2019/11/25 09:09:34.000   4063628.7208    246519.0132   4893494.8476   5  15   3.1785   1.6426   3.2998   0.1541   0.6128   2.7028   0.00    0.0
2019/11/25 09:09:35.000   4063641.7803    246518.7387   4893483.6999   5  14   3.8880   1.9154   3.4678   1.4936   1.1945   3.1133   0.00    0.0
2019/11/25 09:09:37.000   4063670.1454    246512.3951   4893464.6851   5  14   4.0371   1.8680   3.5246  -1.4789  -0.8505   3.2229   0.00    0.0
2019/11/25 09:09:38.000   4063679.9216    246510.2235   4893449.8406   5  15   3.1789   1.6425   3.3001   0.1659   0.6153   2.7031   0.00    0.0
2019/11/25 09:09:39.000   4063696.2327    246508.7010   4893438.0085   5  15   3.1790   1.6425   3.3002   0.1688   0.6159   2.7031   0.00    0.0
2019/11/25 09:09:40.000   4063712.6290    246504.8951   4893425.7262   5  15   3.1790   1.6425   3.3003   0.1716   0.6166   2.7032   0.00    0.0
2019/11/25 09:09:41.000   4063728.1701    246503.4887   4893414.7830   5  15   3.1791   1.6425   3.3004   0.1743   0.6172   2.7033   0.00    0.0
2019/11/25 09:09:42.000   4063744.1863    246498.6180   4893403.6543   5  15   3.1792   1.6425   3.3005   0.1770   0.6178   2.7033   0.00    0.0
2019/11/25 09:09:43.000   4063756.6575    246496.5408   4893390.4432   5  15   3.1793   1.6425   3.3005   0.1797   0.6184   2.7034   0.00    0.0
2019/11/25 09:09:44.000   4063770.6813    246493.8555   4893377.2806   5  15   3.1794   1.6425   3.3006   0.1823   0.6190   2.7034   0.00    0.0
2019/11/25 09:09:45.000   4063785.0737    246492.1929   4893359.8293   5  16   2.7238   1.6000   3.1860   0.8019   0.8392   2.4278   0.00    0.0
2019/11/25 09:09:46.000   4063803.8186    246486.4773   4893354.7008   5  15   3.1795   1.6425   3.3008   0.1874   0.6202   2.7035   0.00    0.0
2019/11/25 09:09:47.000   4063815.8701    246484.2987   4893339.5181   5  16   2.7240   1.6001   3.1861   0.8027   0.8399   2.4278   0.00    0.0
2019/11/25 09:09:48.000   4063833.3260    246480.5125   4893328.8032   5  15   2.7310   1.6153   3.5342   0.7760   0.6072   2.4882   0.00    0.0
2019/11/25 09:09:49.000   4063849.2918    246478.5369   4893314.8364   5  15   3.1798   1.6425   3.3010   0.1949   0.6221   2.7037   0.00    0.0
2019/11/25 09:09:50.000   4063866.4861    246475.6712   4893302.0453   5  16   2.7242   1.6002   3.1863   0.8039   0.8410   2.4279   0.00    0.0
2019/11/25 09:09:51.000   4063879.8772    246472.9676   4893288.4859   5  16   2.7243   1.6003   3.1863   0.8043   0.8414   2.4279   0.00    0.0
2019/11/25 09:09:52.000   4063893.8472    246469.1589   4893277.0338   5  15   3.1801   1.6425   3.3013   0.2020   0.6239   2.7039   0.00    0.0
2019/11/25 09:09:55.000   4063940.2396    246460.0049   4893240.5915   5  15   3.1434   1.9169   3.2655   1.5177   1.2097   2.6484   0.00    0.0
2019/11/25 09:09:56.000   4063956.5453    246455.4662   4893224.7238   5  16   2.7246   1.6005   3.1866   0.8062   0.8432   2.4280   0.00    0.0
2019/11/25 09:09:57.000   4063972.7854    246455.0415   4893214.4430   5  16   2.7247   1.6006   3.1867   0.8066   0.8436   2.4280   0.00    0.0
2019/11/25 09:09:58.000   4063988.3029    246450.6471   4893202.5741   5  15   3.1806   1.6425   3.3018   0.2157   0.6276   2.7042   0.00    0.0
2019/11/25 09:09:59.000   4064002.3459    246448.9669   4893186.3943   5  15   2.9912   1.6929   3.2399  -0.1682   0.6252   2.5722   0.00    0.0
2019/11/25 09:10:00.000   4064016.5299    246445.3585   4893174.4700   5  15   2.7320   1.6157   3.5371   0.7805   0.6137   2.4896   0.00    0.0
2019/11/25 09:10:01.000   4064033.3454    246441.2078   4893160.7023   5  16   2.7250   1.6007   3.1869   0.8081   0.8451   2.4281   0.00    0.0
2019/11/25 09:10:02.000   4064050.6181    246439.8856   4893150.6552   5  15   3.1435   1.9175   3.2654   1.5192   1.2107   2.6477   0.00    0.0
2019/11/25 09:10:03.000   4064066.9747    246435.4163   4893137.7557   5  15   3.1810   1.6425   3.3022   0.2264   0.6306   2.7045   0.00    0.0
2019/11/25 09:10:04.000   4064078.9350    246432.4360   4893122.1485   5  14   3.8886   1.9178   3.4672   1.5054   1.2018   3.1109   0.00    0.0
2019/11/25 09:10:05.000   4064096.2652    246430.4387   4893110.9116   5  15   3.1811   1.6425   3.3023   0.2305   0.6318   2.7046   0.00    0.0
2019/11/25 09:10:06.000   4064112.4186    246427.4202   4893100.4291   5  15   3.1812   1.6425   3.3024   0.2326   0.6324   2.7047   0.00    0.0
2019/11/25 09:10:07.000   4064126.8213    246424.9970   4893086.5873   5  14   3.2012   1.6622   3.6817  -0.1895  -0.1197   2.8100   0.00    0.0
2019/11/25 09:10:08.000   4064144.6421    246419.6967   4893078.0164   5  15   3.1814   1.6425   3.3026   0.2366   0.6336   2.7048   0.00    0.0
2019/11/25 09:10:09.000   4064152.6802    246418.5885   4893060.3926   5  15   3.1815   1.6425   3.3027   0.2386   0.6342   2.7048   0.00    0.0
2019/11/25 09:10:10.000   4064169.3530    246414.5430   4893049.3712   5  15   3.1816   1.6425   3.3027   0.2406   0.6348   2.7049   0.00    0.0
2019/11/25 09:10:11.000   4064185.9268    246411.8326   4893041.5194   5  15   3.1816   1.6425   3.3028   0.2426   0.6354   2.7049   0.00    0.0
2019/11/25 09:10:12.000   4064197.8179    246407.2671   4893028.9464   5  14   3.8887   1.9184   3.4670   1.5087   1.2038   3.1102   0.00    0.0
2019/11/25 09:10:13.000   4064212.1040    246401.9314   4893019.9003   5  15   3.1818   1.6425   3.3030   0.2464   0.6366   2.7050   0.00    0.0
2019/11/25 09:10:14.000   4064223.9343    246395.0320   4893007.3543   5  15   3.1819   1.6425   3.3030   0.2484   0.6372   2.7051   0.00    0.0
2019/11/25 09:10:15.000   4064239.2204    246384.7934   4892998.4245   5  13   3.9009   1.9386   3.8215   1.4813   1.0027   3.1885   0.00    0.0
2019/11/25 09:10:16.000   4064249.8599    246375.3313   4892985.0496   5  14   3.8888   1.9188   3.4668   1.5103   1.2048   3.1098   0.00    0.0
2019/11/25 09:10:17.000   4064268.5402    246366.6070   4892977.0355   5  14   3.8888   1.9189   3.4668   1.5107   1.2051   3.1097   0.00    0.0
2019/11/25 09:10:18.000   4064281.9898    246358.0156   4892967.4883   5  14   3.8888   1.9189   3.4668   1.5111   1.2053   3.1097   0.00    0.0
2019/11/25 09:10:19.000   4064297.5911    246347.9906   4892960.1119   5  14   3.8888   1.9190   3.4668   1.5115   1.2056   3.1096   0.00    0.0
2019/11/25 09:10:20.000   4064308.0616    246339.9591   4892945.0696   5  13   3.9011   1.9389   3.8224   1.4833   1.0042   3.1887   0.00    0.0
2019/11/25 09:10:21.000   4064322.3481    246329.8739   4892935.9315   5  13   3.9012   1.9390   3.8226   1.4837   1.0045   3.1887   0.00    0.0
2019/11/25 09:10:22.000   4064336.7653    246322.0280   4892923.0421   5  13   3.9012   1.9391   3.8228   1.4841   1.0048   3.1887   0.00    0.0
2019/11/25 09:10:23.000   4064346.6387    246310.5333   4892911.3173   5  14   3.1943   1.8378   3.3158   0.5439   0.4239   2.6912   0.00    0.0
2019/11/25 09:10:24.000   4064363.4903    246303.9701   4892901.6300   5  15   3.1827   1.6425   3.3038   0.2668   0.6431   2.7056   0.00    0.0
2019/11/25 09:10:25.000   4064376.9537    246294.5670   4892891.1001   5  15   3.1828   1.6425   3.3039   0.2685   0.6437   2.7057   0.00    0.0
2019/11/25 09:10:26.000   4064391.9266    246285.7071   4892878.6173   5  15   3.1828   1.6425   3.3040   0.2703   0.6443   2.7057   0.00    0.0
2019/11/25 09:10:27.000   4064404.9641    246274.4049   4892870.7315   5  15   3.1829   1.6425   3.3040   0.2720   0.6449   2.7058   0.00    0.0
2019/11/25 09:10:28.000   4064421.4666    246266.2739   4892863.3518   5  15   3.1830   1.6425   3.3041   0.2738   0.6455   2.7058   0.00    0.0
2019/11/25 09:10:29.000   4064440.6040    246256.6990   4892853.0550   5  15   3.1831   1.6425   3.3042   0.2755   0.6460   2.7059   0.00    0.0
2019/11/25 09:10:30.000   4064450.0353    246244.3032   4892838.4123   5  13   5.5454   1.9747   3.9627   0.6874   0.7571   4.1537   0.00    0.0
2019/11/25 09:10:31.000   4064461.8111    246235.8087   4892823.3888   5  15   3.1832   1.6425   3.3043   0.2789   0.6472   2.7060   0.00    0.0
2019/11/25 09:10:32.000   4064476.1684    246226.0205   4892810.9852   5  15   3.1833   1.6425   3.3044   0.2806   0.6478   2.7060   0.00    0.0
2019/11/25 09:10:33.000   4064497.6063    246217.3016   4892802.6893   5  15   3.1834   1.6425   3.3045   0.2823   0.6484   2.7061   0.00    0.0
2019/11/25 09:10:34.000   4064506.8480    246207.2301   4892787.8154   5  14   3.8890   1.9203   3.4663   1.5175   1.2092   3.1081   0.00    0.0
2019/11/25 09:10:35.000   4064522.4418    246196.8603   4892776.8125   5  14   3.8890   1.9203   3.4663   1.5179   1.2095   3.1080   0.00    0.0
2019/11/25 09:10:36.000   4064539.6609    246187.1206   4892766.1390   5  14   3.8890   1.9204   3.4662   1.5183   1.2097   3.1080   0.00    0.0
2019/11/25 09:10:37.000   4064553.6806    246178.5378   4892755.4054   5  15   3.1837   1.6425   3.3048   0.2889   0.6507   2.7063   0.00    0.0
2019/11/25 09:10:38.000   4064566.7563    246168.0496   4892743.2799   5  14   3.8890   1.9206   3.4662   1.5191   1.2102   3.1078   0.00    0.0
2019/11/25 09:10:39.000   4064579.3799    246156.8057   4892729.1052   5  15   3.1839   1.6425   3.3049   0.2922   0.6519   2.7063   0.00    0.0
2019/11/25 09:10:40.000   4064596.3019    246148.5745   4892718.9170   5  14   3.8890   1.9207   3.4661   1.5199   1.2107   3.1076   0.00    0.0
2019/11/25 09:10:41.000   4064611.9028    246138.1840   4892707.5104   5  13   5.5424   1.9742   3.9592   0.7142   0.7704   4.1488   0.00    0.0
2019/11/25 09:10:42.000   4064625.5687    246125.4769   4892696.4819   5  15   3.1841   1.6425   3.3051   0.2970   0.6536   2.7065   0.00    0.0
2019/11/25 09:10:43.000   4064636.0174    246120.1141   4892682.1525   5  15   3.1842   1.6425   3.3052   0.2986   0.6542   2.7065   0.00    0.0
2019/11/25 09:10:44.000   4064652.0988    246110.0387   4892669.4443   5  15   3.1843   1.6425   3.3053   0.3002   0.6548   2.7066   0.00    0.0
2019/11/25 09:10:45.000   4064667.7526    246099.2303   4892659.6052   5  14   4.0300   1.8554   3.5211  -1.4285  -0.7860   3.2130   0.00    0.0
2019/11/25 09:10:46.000   4064680.0661    246090.2128   4892643.9555   5  15   3.1844   1.6425   3.3054   0.3033   0.6559   2.7067   0.00    0.0
2019/11/25 09:10:47.000   4064696.1418    246079.8529   4892634.5923   5  14   4.0298   1.8551   3.5210  -1.4270  -0.7840   3.2127   0.00    0.0
2019/11/25 09:10:48.000   4064708.0704    246071.0869   4892621.5758   5  15   3.1846   1.6425   3.3056   0.3065   0.6571   2.7068   0.00    0.0
2019/11/25 09:10:49.000   4064724.7467    246061.0101   4892610.6492   5  14   4.0296   1.8547   3.5208  -1.4255  -0.7820   3.2124   0.00    0.0
2019/11/25 09:10:50.000   4064738.7132    246051.6483   4892602.7604   5  15   3.1847   1.6425   3.3057   0.3095   0.6582   2.7069   0.00    0.0
2019/11/25 09:10:55.000   4064791.6169    245998.0644   4892557.0036   5  15   3.1851   1.6425   3.3060   0.3171   0.6611   2.7071   0.00    0.0
2019/11/25 09:10:56.000   4064800.6346    245982.8469   4892550.5431   5  15   3.1852   1.6425   3.3061   0.3186   0.6617   2.7071   0.00    0.0
2019/11/25 09:10:57.000   4064810.2073    245968.5495   4892547.8329   5  15   3.1853   1.6425   3.3062   0.3201   0.6623   2.7072   0.00    0.0
2019/11/25 09:10:58.000   4064814.9377    245952.2364   4892541.0611   5  15   3.1854   1.6425   3.3063   0.3216   0.6628   2.7072   0.00    0.0
2019/11/25 09:10:59.000   4064821.6826    245938.9106   4892535.1503   5  15   3.1854   1.6425   3.3063   0.3230   0.6634   2.7073   0.00    0.0
2019/11/25 09:11:00.000   4064827.8382    245922.4083   4892530.0496   5  14   3.8891   1.9224   3.4653   1.5277   1.2154   3.1055   0.00    0.0
2019/11/25 09:11:01.000   4064836.6180    245908.7958   4892529.4010   5  15   3.1856   1.6425   3.3065   0.3259   0.6645   2.7073   0.00    0.0
2019/11/25 09:11:02.000   4064840.3237    245893.1582   4892520.2442   5  13   3.9026   1.9418   3.8300   1.4993   1.0164   3.1892   0.00    0.0
2019/11/25 09:11:03.000   4064849.9846    245879.2082   4892516.4705   5  14   3.8891   1.9227   3.4652   1.5289   1.2161   3.1052   0.00    0.0
2019/11/25 09:11:04.000   4064854.7372    245865.2866   4892511.5390   5  13   3.9027   1.9420   3.8303   1.5000   1.0170   3.1892   0.00    0.0
2019/11/25 09:11:05.000   4064857.1402    245853.5737   4892500.4082   5  13   3.9027   1.9421   3.8305   1.5004   1.0173   3.1892   0.00    0.0
2019/11/25 09:11:06.000   4064865.1330    245840.1857   4892495.1954   5  14   3.2081   1.6614   3.6985   0.1308   0.1789   2.8203   0.00    0.0
2019/11/25 09:11:07.000   4064875.0779    245821.5463   4892492.2559   5  14   3.8891   1.9230   3.4651   1.5304   1.2170   3.1048   0.00    0.0
2019/11/25 09:11:08.000   4064882.4675    245805.2903   4892491.2942   5  15   3.1861   1.6425   3.3069   0.3360   0.6685   2.7076   0.00    0.0
2019/11/25 09:11:09.000   4064892.8252    245791.3534   4892486.1696   5  14   3.8891   1.9231   3.4650   1.5312   1.2175   3.1045   0.00    0.0
2019/11/25 09:11:10.000   4064899.4166    245778.2040   4892482.1889   5  13   3.9028   1.9424   3.8313   1.5023   1.0187   3.1892   0.00    0.0
2019/11/25 09:11:11.000   4064909.4555    245764.5097   4892479.9589   5  14   3.2087   1.6613   3.6998   0.1470   0.1896   2.8211   0.00    0.0
2019/11/25 09:11:12.000   4064912.3260    245748.1217   4892471.2812   5  13   3.9029   1.9425   3.8317   1.5031   1.0193   3.1893   0.00    0.0
2019/11/25 09:11:13.000   4064919.4611    245734.9488   4892463.4837   5  13   3.9029   1.9426   3.8319   1.5034   1.0196   3.1893   0.00    0.0
2019/11/25 09:11:14.000   4064925.4835    245721.7797   4892456.4856   5  14   3.8891   1.9236   3.4648   1.5331   1.2186   3.1040   0.00    0.0
2019/11/25 09:11:15.000   4064932.4428    245708.0575   4892452.4244   5  14   3.8891   1.9236   3.4647   1.5335   1.2189   3.1039   0.00    0.0
2019/11/25 09:11:16.000   4064939.3725    245693.9868   4892451.5373   5  14   3.8891   1.9237   3.4647   1.5339   1.2191   3.1038   0.00    0.0
2019/11/25 09:11:17.000   4064945.1942    245679.9441   4892444.1245   5  13   3.9030   1.9429   3.8325   1.5049   1.0207   3.1893   0.00    0.0
2019/11/25 09:11:18.000   4064957.8503    245668.6228   4892441.1228   5  14   3.2095   1.6613   3.7018   0.1671   0.2037   2.8223   0.00    0.0
2019/11/25 09:11:19.000   4064959.1275    245651.9970   4892434.1855   5  13   3.9031   1.9430   3.8329   1.5057   1.0213   3.1893   0.00    0.0
2019/11/25 09:11:20.000   4064967.7493    245639.1063   4892431.5836   5  14   3.2097   1.6612   3.7023   0.1724   0.2076   2.8226   0.00    0.0
2019/11/25 09:11:21.000   4064972.6738    245624.6975   4892427.1615   5  13   3.9031   1.9432   3.8332   1.5064   1.0218   3.1892   0.00    0.0
2019/11/25 09:11:22.000   4064978.3330    245611.0659   4892424.7819   5  14   3.2099   1.6612   3.7028   0.1776   0.2114   2.8229   0.00    0.0
2019/11/25 09:11:23.000   4064984.8712    245599.0586   4892416.7140   5  13   3.9032   1.9433   3.8335   1.5072   1.0224   3.1892   0.00    0.0
2019/11/25 09:11:24.000   4064990.8440    245586.4591   4892412.1048   5  13   3.9032   1.9434   3.8337   1.5075   1.0226   3.1892   0.00    0.0
2019/11/25 09:11:25.000   4064996.6648    245573.4254   4892408.3016   5  13   3.9032   1.9434   3.8339   1.5079   1.0229   3.1892   0.00    0.0
2019/11/25 09:11:26.000   4065003.7628    245561.8697   4892404.8268   5  15   3.1875   1.6426   3.3081   0.3605   0.6786   2.7084   0.00    0.0
2019/11/25 09:11:27.000   4065009.3610    245549.1955   4892402.7693   5  14   3.8891   1.9246   3.4642   1.5381   1.2216   3.1025   0.00    0.0
2019/11/25 09:11:28.000   4065013.8577    245536.1563   4892394.2256   5  13   3.9033   1.9437   3.8344   1.5090   1.0238   3.1892   0.00    0.0
2019/11/25 09:11:29.000   4065021.0961    245525.5679   4892395.0450   5  13   3.9033   1.9437   3.8345   1.5094   1.0240   3.1892   0.00    0.0
2019/11/25 09:11:30.000   4065027.1975    245515.7034   4892388.7203   5  13   3.9033   1.9438   3.8347   1.5098   1.0243   3.1892   0.00    0.0
2019/11/25 09:11:31.000   4065032.9249    245505.9601   4892383.4225   5  13   3.9033   1.9439   3.8349   1.5101   1.0246   3.1892   0.00    0.0
2019/11/25 09:11:32.000   4065036.4340    245494.5598   4892378.9974   5  14   3.8891   1.9251   3.4640   1.5401   1.2227   3.1019   0.00    0.0
2019/11/25 09:11:33.000   4065039.6649    245486.5606   4892372.8093   5  15   3.1880   1.6426   3.3086   0.3695   0.6825   2.7086   0.00    0.0
2019/11/25 09:11:34.000   4065043.7758    245477.5228   4892374.3623   5  15   3.1881   1.6426   3.3086   0.3708   0.6830   2.7086   0.00    0.0
2019/11/25 09:11:35.000   4065046.1553    245468.7707   4892372.1171   5  14   3.2114   1.6611   3.7064   0.2081   0.2345   2.8250   0.00    0.0
2019/11/25 09:11:36.000   4065051.4029    245460.9498   4892369.3767   5  13   3.9035   1.9442   3.8357   1.5120   1.0260   3.1892   0.00    0.0
2019/11/25 09:11:37.000   4065055.9877    245452.2751   4892364.2298   5  13   3.9035   1.9443   3.8359   1.5124   1.0262   3.1892   0.00    0.0
2019/11/25 09:11:38.000   4065061.1732    245442.1186   4892368.6124   5  12   3.9504   2.1559   3.9228   1.6893   0.5381   3.1101   0.00    0.0
2019/11/25 09:11:39.000   4065065.1622    245431.0341   4892361.9250   5  13   3.9035   1.9444   3.8362   1.5131   1.0268   3.1892   0.00    0.0
2019/11/25 09:11:40.000   4065069.6410    245421.6790   4892356.1795   5  13   3.9035   1.9445   3.8363   1.5135   1.0271   3.1891   0.00    0.0
2019/11/25 09:11:42.000   4065079.8518    245403.0761   4892349.6785   5  13   3.9036   1.9447   3.8367   1.5142   1.0276   3.1891   0.00    0.0
2019/11/25 09:11:43.000   4065083.6347    245393.9044   4892343.7483   5  14   3.8890   1.9260   3.4634   1.5442   1.2252   3.1006   0.00    0.0
2019/11/25 09:11:44.000   4065087.8358    245384.1901   4892341.4806   5  13   3.9036   1.9448   3.8370   1.5149   1.0281   3.1891   0.00    0.0
2019/11/25 09:11:45.000   4065091.8743    245375.8137   4892333.4154   5  14   3.8890   1.9262   3.4633   1.5450   1.2256   3.1004   0.00    0.0
2019/11/25 09:11:46.000   4065096.9181    245366.4280   4892333.2991   5  14   3.8890   1.9262   3.4633   1.5454   1.2258   3.1003   0.00    0.0
2019/11/25 09:11:47.000   4065101.0332    245357.7277   4892328.9372   5  14   3.8890   1.9263   3.4632   1.5457   1.2261   3.1002   0.00    0.0
2019/11/25 09:11:48.000   4065104.7521    245348.3479   4892327.1288   5  15   3.1891   1.6427   3.3095   0.3883   0.6907   2.7091   0.00    0.0
2019/11/25 09:11:49.000   4065108.0950    245339.7228   4892323.2475   5  15   3.1892   1.6427   3.3096   0.3895   0.6913   2.7092   0.00    0.0
2019/11/25 09:11:50.000   4065113.2943    245332.0082   4892320.2150   5  15   3.1892   1.6427   3.3096   0.3907   0.6918   2.7092   0.00    0.0
2019/11/25 09:11:51.000   4065116.8058    245323.8109   4892317.4005   5  15   3.1893   1.6427   3.3097   0.3919   0.6923   2.7092   0.00    0.0
2019/11/25 09:11:52.000   4065120.0001    245317.2311   4892314.9014   5  15   3.1894   1.6427   3.3097   0.3931   0.6929   2.7093   0.00    0.0
2019/11/25 09:11:53.000   4065123.3851    245311.3992   4892313.5529   5  15   3.1894   1.6427   3.3098   0.3943   0.6934   2.7093   0.00    0.0
2019/11/25 09:11:54.000   4065125.7375    245305.0158   4892311.9851   5  15   3.1895   1.6427   3.3099   0.3955   0.6940   2.7093   0.00    0.0
2019/11/25 09:11:55.000   4065127.3388    245298.9615   4892311.3048   5  15   3.1896   1.6427   3.3099   0.3967   0.6945   2.7094   0.00    0.0
2019/11/25 09:11:56.000   4065127.6628    245294.7240   4892311.1408   5  15   3.1897   1.6428   3.3100   0.3979   0.6950   2.7094   0.00    0.0
2019/11/25 09:11:57.000   4065127.8924    245291.9984   4892311.1858   5  15   3.1897   1.6428   3.3100   0.3991   0.6956   2.7094   0.00    0.0
2019/11/25 09:11:58.000   4065128.4815    245290.2154   4892311.3345   5  15   3.1898   1.6428   3.3101   0.4003   0.6961   2.7095   0.00    0.0
2019/11/25 09:11:59.000   4065128.6531    245289.1356   4892311.1465   5  15   3.1899   1.6428   3.3102   0.4014   0.6967   2.7095   0.00    0.0
2019/11/25 09:12:00.000   4065128.1083    245289.4547   4892310.8744   5  15   3.1900   1.6428   3.3102   0.4026   0.6972   2.7095   0.00    0.0
2019/11/25 09:12:01.000   4065127.6966    245289.5667   4892310.3712   5  15   3.1900   1.6428   3.3103   0.4038   0.6977   2.7096   0.00    0.0
2019/11/25 09:12:02.000   4065127.4241    245289.6302   4892310.3690   5  15   3.1901   1.6428   3.3103   0.4050   0.6983   2.7096   0.00    0.0
2019/11/25 09:12:03.000   4065127.3955    245289.7018   4892310.5574   5  15   3.1902   1.6428   3.3104   0.4061   0.6988   2.7096   0.00    0.0
2019/11/25 09:12:04.000   4065127.4204    245289.6306   4892310.7806   5  15   3.1902   1.6428   3.3105   0.4073   0.6993   2.7097   0.00    0.0
2019/11/25 09:12:05.000   4065127.7826    245289.7470   4892311.1340   5  15   3.1903   1.6428   3.3105   0.4084   0.6999   2.7097   0.00    0.0
2019/11/25 09:12:06.000   4065128.2889    245289.7296   4892311.6636   5  15   3.1904   1.6428   3.3106   0.4096   0.7004   2.7097   0.00    0.0
2019/11/25 09:12:07.000   4065128.0662    245289.7397   4892311.6899   5  15   3.1905   1.6428   3.3106   0.4107   0.7009   2.7098   0.00    0.0
2019/11/25 09:12:08.000   4065128.0689    245289.6723   4892311.7561   5  15   3.1905   1.6428   3.3107   0.4119   0.7015   2.7098   0.00    0.0
2019/11/25 09:12:09.000   4065128.4551    245289.6437   4892312.2309   5  15   3.1906   1.6428   3.3107   0.4130   0.7020   2.7098   0.00    0.0
2019/11/25 09:12:10.000   4065128.3060    245289.5178   4892311.9910   5  15   3.1907   1.6429   3.3108   0.4142   0.7025   2.7098   0.00    0.0
2019/11/25 09:12:11.000   4065128.5678    245289.4470   4892312.1469   5  15   3.1907   1.6429   3.3109   0.4153   0.7031   2.7099   0.00    0.0
2019/11/25 09:12:12.000   4065128.3400    245289.3587   4892312.0797   5  15   3.1908   1.6429   3.3109   0.4165   0.7036   2.7099   0.00    0.0
2019/11/25 09:12:13.000   4065128.2641    245289.3930   4892311.8909   5  15   3.1909   1.6429   3.3110   0.4176   0.7041   2.7099   0.00    0.0
2019/11/25 09:12:14.000   4065128.0623    245289.4311   4892311.5302   5  15   3.1909   1.6429   3.3110   0.4187   0.7047   2.7100   0.00    0.0
2019/11/25 09:12:15.000   4065127.5856    245289.4459   4892311.0562   5  15   3.1910   1.6429   3.3111   0.4198   0.7052   2.7100   0.00    0.0
2019/11/25 09:12:16.000   4065127.5035    245289.6501   4892310.6987   5  15   3.1911   1.6429   3.3112   0.4210   0.7057   2.7100   0.00    0.0
2019/11/25 09:12:17.000   4065127.5906    245289.5128   4892310.6416   5  15   3.1912   1.6429   3.3112   0.4221   0.7062   2.7100   0.00    0.0
2019/11/25 09:12:18.000   4065128.1837    245288.8423   4892310.7610   5  15   3.1912   1.6429   3.3113   0.4232   0.7068   2.7101   0.00    0.0
2019/11/25 09:12:19.000   4065128.6399    245287.8062   4892310.4553   5  15   3.1913   1.6429   3.3113   0.4243   0.7073   2.7101   0.00    0.0
2019/11/25 09:12:20.000   4065129.6014    245285.4219   4892309.8038   5  15   3.1914   1.6429   3.3114   0.4254   0.7078   2.7101   0.00    0.0
2019/11/25 09:12:21.000   4065131.7788    245283.1191   4892308.0787   5  15   3.1914   1.6429   3.3114   0.4265   0.7084   2.7102   0.00    0.0
2019/11/25 09:12:22.000   4065134.9268    245282.6583   4892305.2191   5  15   3.1915   1.6429   3.3115   0.4276   0.7089   2.7102   0.00    0.0
2019/11/25 09:12:23.000   4065138.1142    245284.8677   4892302.8625   5  15   3.1916   1.6430   3.3115   0.4287   0.7094   2.7102   0.00    0.0
2019/11/25 09:12:24.000   4065139.6350    245289.7023   4892301.7114   5  15   3.1917   1.6430   3.3116   0.4298   0.7099   2.7102   0.00    0.0
2019/11/25 09:12:25.000   4065138.6744    245294.7551   4892302.6431   5  14   3.2168   1.6607   3.7196   0.2976   0.3079   2.8329   0.00    0.0
2019/11/25 09:12:26.000   4065135.8126    245299.1750   4892304.6459   5  13   3.2199   1.8061   3.8618   0.4332  -0.8006   2.8076   0.00    0.0
2019/11/25 09:12:27.000   4065132.2314    245305.3844   4892306.8619   5  13   4.0544   2.1589   3.5792  -1.5571   0.5484   3.1411   0.00    0.0
2019/11/25 09:12:28.000   4065126.3732    245311.3049   4892310.4240   5  15   3.1919   1.6430   3.3118   0.4342   0.7120   2.7104   0.00    0.0
2019/11/25 09:12:29.000   4065122.5170    245320.2684   4892313.9581   5  14   3.2162   1.8088   3.4762   0.6983   1.1431   2.7861   0.00    0.0
2019/11/25 09:12:30.000   4065119.6215    245328.5322   4892318.1517   5  14   4.0196   1.8378   3.5146  -1.3494  -0.6782   3.1969   0.00    0.0
2019/11/25 09:12:31.000   4065113.7053    245338.8768   4892321.4748   5  15   3.1921   1.6430   3.3120   0.4374   0.7136   2.7104   0.00    0.0
2019/11/25 09:12:32.000   4065108.8273    245348.1521   4892324.3289   5  15   3.1922   1.6430   3.3121   0.4385   0.7141   2.7105   0.00    0.0
2019/11/25 09:12:33.000   4065103.4589    245359.1671   4892328.1089   5  15   3.1923   1.6431   3.3121   0.4396   0.7146   2.7105   0.00    0.0
2019/11/25 09:12:34.000   4065097.5883    245370.8722   4892332.1774   5  15   3.1923   1.6431   3.3122   0.4407   0.7151   2.7105   0.00    0.0
2019/11/25 09:12:35.000   4065093.5215    245382.8099   4892338.8267   5  15   3.1924   1.6431   3.3122   0.4417   0.7157   2.7105   0.00    0.0
2019/11/25 09:12:36.000   4065088.7683    245395.2092   4892343.2004   5  14   3.2180   1.6607   3.7225   0.3139   0.3218   2.8345   0.00    0.0
2019/11/25 09:12:37.000   4065080.0000    245406.9342   4892345.5792   5  15   3.1926   1.6431   3.3123   0.4438   0.7167   2.7106   0.00    0.0
2019/11/25 09:12:38.000   4065076.5688    245421.1373   4892352.9036   5  15   3.1926   1.6431   3.3124   0.4449   0.7172   2.7106   0.00    0.0
2019/11/25 09:12:39.000   4065068.0955    245432.3882   4892356.2972   5  14   3.8883   1.9308   3.4604   1.5650   1.2370   3.0934   0.00    0.0
2019/11/25 09:12:40.000   4065062.9911    245445.3299   4892360.9055   5  14   3.2184   1.6606   3.7235   0.3197   0.3267   2.8351   0.00    0.0
2019/11/25 09:12:41.000   4065058.8090    245458.3141   4892364.6088   5  14   3.2186   1.6606   3.7238   0.3211   0.3279   2.8353   0.00    0.0
2019/11/25 09:12:42.000   4065052.3465    245467.7401   4892369.5626   5  14   3.8882   1.9311   3.4602   1.5661   1.2376   3.0930   0.00    0.0
2019/11/25 09:12:43.000   4065047.6957    245477.0022   4892372.5671   5  14   3.8882   1.9312   3.4602   1.5665   1.2378   3.0929   0.00    0.0
2019/11/25 09:12:44.000   4065040.0267    245483.9691   4892374.2215   5  15   3.1930   1.6432   3.3127   0.4512   0.7203   2.7108   0.00    0.0
2019/11/25 09:12:45.000   4065038.3032    245493.9944   4892375.2250   5  15   3.1931   1.6432   3.3128   0.4523   0.7208   2.7108   0.00    0.0
2019/11/25 09:12:46.000   4065033.0112    245502.5377   4892378.5346   5  15   3.1932   1.6432   3.3128   0.4533   0.7213   2.7108   0.00    0.0
2019/11/25 09:12:47.000   4065030.5841    245513.9498   4892383.0121   5  14   3.2192   1.6606   3.7253   0.3295   0.3351   2.8361   0.00    0.0
2019/11/25 09:12:48.000   4065025.6351    245524.5521   4892387.1776   5  15   3.1933   1.6432   3.3129   0.4554   0.7223   2.7109   0.00    0.0
2019/11/25 09:12:49.000   4065020.9353    245537.1234   4892393.0196   5  14   3.2194   1.6606   3.7258   0.3322   0.3375   2.8364   0.00    0.0
2019/11/25 09:12:50.000   4065011.6690    245548.1387   4892395.1946   5  14   3.8881   1.9318   3.4597   1.5690   1.2392   3.0919   0.00    0.0
2019/11/25 09:12:51.000   4065006.5719    245561.0562   4892401.6211   5  15   3.1935   1.6432   3.3131   0.4584   0.7239   2.7109   0.00    0.0
2019/11/25 09:12:52.000   4065000.2729    245574.1937   4892405.7251   5  15   3.1936   1.6433   3.3131   0.4595   0.7244   2.7109   0.00    0.0
2019/11/25 09:12:53.000   4064993.1874    245587.4127   4892411.2105   5  13   3.9045   1.9499   3.8475   1.5398   1.0460   3.1875   0.00    0.0
2019/11/25 09:12:54.000   4064987.9635    245602.7684   4892416.6171   5  14   3.8880   1.9321   3.4595   1.5704   1.2400   3.0913   0.00    0.0
2019/11/25 09:12:55.000   4064980.5972    245617.9961   4892422.1149   5  14   3.8880   1.9322   3.4594   1.5708   1.2402   3.0912   0.00    0.0
2019/11/25 09:12:56.000   4064973.5344    245632.8386   4892428.8339   5  14   3.2201   1.6606   3.7276   0.3416   0.3456   2.8374   0.00    0.0
2019/11/25 09:12:57.000   4064965.9693    245648.1874   4892433.3045   5  15   3.1939   1.6433   3.3134   0.4646   0.7269   2.7111   0.00    0.0
2019/11/25 09:12:58.000   4064958.1600    245664.0084   4892436.9972   5  14   3.2204   1.6606   3.7281   0.3443   0.3479   2.8377   0.00    0.0
2019/11/25 09:12:59.000   4064949.1841    245679.5246   4892441.6180   5  13   3.9045   1.9503   3.8484   1.5419   1.0475   3.1873   0.00    0.0
2019/11/25 09:13:00.000   4064941.3293    245695.8966   4892448.1062   5  13   3.9045   1.9504   3.8486   1.5422   1.0477   3.1872   0.00    0.0
2019/11/25 09:13:01.000   4064933.9985    245713.0420   4892455.1317   5  14   3.2207   1.6606   3.7289   0.3482   0.3513   2.8382   0.00    0.0
2019/11/25 09:13:02.000   4064923.5355    245730.1932   4892458.9207   5  15   3.1943   1.6434   3.3137   0.4696   0.7295   2.7112   0.00    0.0
2019/11/25 09:13:03.000   4064915.9597    245747.5639   4892464.6036   5  14   3.8878   1.9329   3.4589   1.5737   1.2418   3.0900   0.00    0.0
2019/11/25 09:13:04.000   4064909.7622    245765.8474   4892473.1329   5  14   3.2210   1.6606   3.7297   0.3521   0.3547   2.8386   0.00    0.0
2019/11/25 09:13:05.000   4064900.0719    245783.5743   4892479.0478   5  14   3.2211   1.6606   3.7299   0.3534   0.3558   2.8387   0.00    0.0
2019/11/25 09:13:06.000   4064890.6940    245801.2154   4892484.5863   5  14   3.8877   1.9332   3.4587   1.5747   1.2423   3.0896   0.00    0.0
2019/11/25 09:13:07.000   4064885.6318    245820.3397   4892493.0447   5  14   3.2213   1.6606   3.7304   0.3560   0.3581   2.8390   0.00    0.0
2019/11/25 09:13:08.000   4064873.8257    245838.4262   4892495.1994   5  14   3.2214   1.6606   3.7307   0.3572   0.3592   2.8392   0.00    0.0
2019/11/25 09:13:09.000   4064864.9918    245854.7977   4892503.4062   5  14   3.2215   1.6606   3.7309   0.3585   0.3603   2.8393   0.00    0.0
2019/11/25 09:13:10.000   4064854.7943    245870.3603   4892507.8653   5  13   3.2317   1.8643   3.7480   0.5883  -0.4123   2.8234   0.00    0.0
2019/11/25 09:13:11.000   4064850.2964    245890.5827   4892511.8255   5  14   3.1965   1.7041   3.5435   0.4274   1.0505   2.6875   0.00    0.0
2019/11/25 09:13:12.000   4064841.1885    245906.5847   4892525.4798   5  13   3.9045   1.9513   3.8502   1.5464   1.0506   3.1868   0.00    0.0
2019/11/25 09:13:13.000   4064833.4563    245924.6707   4892529.8854   5  13   3.9045   1.9514   3.8504   1.5468   1.0509   3.1867   0.00    0.0
2019/11/25 09:13:14.000   4064825.6399    245942.2925   4892535.7250   5  13   3.9045   1.9514   3.8505   1.5471   1.0511   3.1867   0.00    0.0
2019/11/25 09:13:15.000   4064814.9775    245958.1090   4892537.4898   5  14   3.8875   1.9340   3.4581   1.5779   1.2441   3.0882   0.00    0.0
2019/11/25 09:13:16.000   4064809.6592    245973.3938   4892548.5073   5  15   3.1952   1.6435   3.3144   0.4834   0.7365   2.7114   0.00    0.0
2019/11/25 09:13:17.000   4064801.2917    245989.7593   4892551.3103   5  14   3.8874   1.9341   3.4580   1.5787   1.2444   3.0879   0.00    0.0
2019/11/25 09:13:18.000   4064792.4008    246004.4905   4892555.9472   5  15   3.1953   1.6436   3.3145   0.4853   0.7375   2.7115   0.00    0.0
2019/11/25 09:13:19.000   4064782.5339    246018.3623   4892562.3625   5  15   3.1954   1.6436   3.3145   0.4863   0.7380   2.7115   0.00    0.0
2019/11/25 09:13:20.000   4064772.1748    246031.0469   4892573.6250   5  15   3.1955   1.6436   3.3145   0.4872   0.7385   2.7115   0.00    0.0
2019/11/25 09:13:21.000   4064764.1874    246040.1318   4892586.2159   5  14   3.8873   1.9345   3.4577   1.5801   1.2452   3.0873   0.00    0.0
2019/11/25 09:13:22.000   4064769.3571    246047.3793   4892606.8979   5  14   3.8873   1.9346   3.4577   1.5804   1.2454   3.0872   0.00    0.0
2019/11/25 09:13:23.000   4064735.3580    246058.4229   4892607.9461   5  15   3.1956   1.6436   3.3147   0.4901   0.7400   2.7116   0.00    0.0
2019/11/25 09:13:24.000   4064720.5682    246067.8782   4892617.3148   5  15   3.1957   1.6437   3.3147   0.4911   0.7405   2.7116   0.00    0.0
2019/11/25 09:13:26.000   4064692.6277    246087.6609   4892642.5103   5  15   3.1958   1.6437   3.3148   0.4930   0.7414   2.7116   0.00    0.0
2019/11/25 09:13:27.000   4064676.4059    246097.9427   4892651.8228   5  15   3.1959   1.6437   3.3149   0.4939   0.7419   2.7116   0.00    0.0
2019/11/25 09:13:28.000   4064661.2448    246107.7313   4892662.5086   5  15   3.1960   1.6437   3.3149   0.4949   0.7424   2.7116   0.00    0.0
2019/11/25 09:13:29.000   4064654.2490    246115.3819   4892675.2174   5  14   3.2148   1.6455   3.5673   0.4684   0.6720   2.7947   0.00    0.0
2019/11/25 09:13:30.000   4064634.4667    246124.9709   4892685.4312   5  14   3.2149   1.6455   3.5675   0.4694   0.6726   2.7948   0.00    0.0
2019/11/25 09:13:31.000   4064620.5597    246134.8398   4892696.9306   5  13   3.2618   1.6677   4.2032   0.2685  -0.3858   3.0059   0.00    0.0
2019/11/25 09:13:32.000   4064610.2114    246143.9330   4892708.9464   5  14   3.2151   1.6455   3.5678   0.4715   0.6738   2.7949   0.00    0.0
2019/11/25 09:13:33.000   4064595.9304    246152.6412   4892720.4278   5  14   3.2151   1.6455   3.5679   0.4725   0.6744   2.7950   0.00    0.0
2019/11/25 09:13:34.000   4064581.9905    246161.6434   4892730.4837   5  14   3.2152   1.6455   3.5681   0.4735   0.6750   2.7951   0.00    0.0
2019/11/25 09:13:35.000   4064575.4766    246171.2348   4892747.7633   5  12   5.4959   1.9777   4.0749   1.0354   0.8324   4.0701   0.00    0.0
2019/11/25 09:13:36.000   4064557.6665    246179.6378   4892756.5815   5  14   3.2154   1.6455   3.5684   0.4755   0.6763   2.7952   0.00    0.0
2019/11/25 09:13:37.000   4064541.4772    246187.2923   4892768.2974   5  14   3.2155   1.6456   3.5686   0.4765   0.6769   2.7953   0.00    0.0
2019/11/25 09:13:38.000   4064526.7971    246199.6782   4892777.4734   5  14   3.2156   1.6456   3.5687   0.4775   0.6775   2.7954   0.00    0.0
2019/11/25 09:13:39.000   4064511.8663    246209.9331   4892789.7754   5  14   3.2156   1.6456   3.5689   0.4785   0.6781   2.7955   0.00    0.0
2019/11/25 09:13:40.000   4064497.5804    246220.1549   4892798.3501   5  13   3.8890   1.9442   3.6692   1.5793   1.1585   3.1108   0.00    0.0
2019/11/25 09:13:41.000   4064478.8033    246229.1976   4892808.8423   5  14   3.2158   1.6456   3.5692   0.4805   0.6793   2.7956   0.00    0.0
2019/11/25 09:13:42.000   4064466.0431    246239.2329   4892820.9152   5  14   3.2159   1.6456   3.5694   0.4815   0.6799   2.7957   0.00    0.0
2019/11/25 09:13:43.000   4064457.3952    246248.9873   4892835.4517   5  13   3.8889   1.9444   3.6694   1.5803   1.1592   3.1105   0.00    0.0
2019/11/25 09:13:44.000   4064446.9516    246257.1992   4892851.8137   5  13   3.2638   1.6675   4.2100   0.2897  -0.3704   3.0097   0.00    0.0
2019/11/25 09:13:45.000   4064430.2527    246266.6142   4892859.8975   5  13   3.8888   1.9446   3.6695   1.5810   1.1596   3.1103   0.00    0.0
2019/11/25 09:13:46.000   4064406.3474    246277.6266   4892865.8881   5  12   3.9131   1.9721   4.2729   1.5356   0.7920   3.2596   0.00    0.0
2019/11/25 09:13:47.000   4064389.3915    246287.9566   4892874.3365   5  14   3.2163   1.6457   3.5702   0.4864   0.6830   2.7961   0.00    0.0
2019/11/25 09:13:48.000   4064374.9001    246296.6382   4892886.7599   5  13   3.2644   1.6675   4.2121   0.2959  -0.3655   3.0109   0.00    0.0
2019/11/25 09:13:49.000   4064362.0291    246306.7211   4892900.8187   5  13   3.8887   1.9449   3.6697   1.5824   1.1604   3.1098   0.00    0.0
2019/11/25 09:13:50.000   4064347.2484    246314.9423   4892910.5942   5  14   3.2166   1.6457   3.5706   0.4894   0.6848   2.7963   0.00    0.0
2019/11/25 09:13:51.000   4064334.9636    246325.7017   4892925.1514   5  13   3.8887   1.9451   3.6697   1.5831   1.1608   3.1096   0.00    0.0
2019/11/25 09:13:52.000   4064320.8947    246334.4991   4892936.8429   5  14   3.2167   1.6457   3.5709   0.4913   0.6860   2.7965   0.00    0.0
2019/11/25 09:13:53.000   4064306.2842    246345.6561   4892947.0408   5  13   3.2652   1.6674   4.2147   0.3035  -0.3592   3.0123   0.00    0.0
2019/11/25 09:13:54.000   4064291.1032    246354.6486   4892956.7516   5  14   3.2169   1.6457   3.5712   0.4933   0.6872   2.7966   0.00    0.0
2019/11/25 09:13:55.000   4064278.9337    246365.1753   4892971.3433   5  13   3.8886   1.9454   3.6699   1.5844   1.1616   3.1091   0.00    0.0
2019/11/25 09:13:56.000   4064266.5771    246373.9526   4892984.6167   5  13   3.8885   1.9455   3.6700   1.5848   1.1618   3.1090   0.00    0.0
2019/11/25 09:13:57.000   4064249.2817    246382.2174   4892995.6091   5  14   3.2171   1.6458   3.5717   0.4962   0.6890   2.7968   0.00    0.0
2019/11/25 09:13:58.000   4064234.1047    246394.0068   4893003.4300   5  13   3.8885   1.9457   3.6701   1.5854   1.1622   3.1088   0.00    0.0
2019/11/25 09:13:59.000   4064218.4961    246403.9920   4893015.2790   5  13   3.8884   1.9457   3.6701   1.5858   1.1624   3.1087   0.00    0.0
2019/11/25 09:14:00.000   4064200.1142    246411.1071   4893026.0825   5  13   3.2663   1.6674   4.2183   0.3139  -0.3503   3.0144   0.00    0.0
2019/11/25 09:14:01.000   4064180.5923    246417.1305   4893034.3661   5  13   3.8884   1.9459   3.6702   1.5865   1.1628   3.1084   0.00    0.0
2019/11/25 09:14:02.000   4064166.8377    246419.7170   4893052.0648   5  14   3.2176   1.6458   3.5725   0.5009   0.6920   2.7972   0.00    0.0
2019/11/25 09:14:03.000   4064150.5465    246422.3776   4893063.2138   5  14   3.2176   1.6458   3.5726   0.5019   0.6926   2.7973   0.00    0.0
2019/11/25 09:14:04.000   4064137.3050    246424.4451   4893082.0179   5  13   4.0310   1.8260   3.7589  -1.2912  -0.6657   3.2652   0.00    0.0
2019/11/25 09:14:05.000   4064133.6200    246427.5218   4893098.0978   5  13   3.8883   1.9462   3.6704   1.5878   1.1636   3.1080   0.00    0.0
2019/11/25 09:14:06.000   4064112.6811    246428.1660   4893108.4095   5  14   3.2179   1.6459   3.5731   0.5047   0.6944   2.7975   0.00    0.0
2019/11/25 09:14:07.000   4064087.3794    246436.2847   4893118.5734   5  12   3.9133   1.9735   4.2817   1.5424   0.7975   3.2609   0.00    0.0
2019/11/25 09:14:08.000   4064071.5999    246438.5012   4893133.1082   5  14   3.2180   1.6459   3.5734   0.5066   0.6956   2.7977   0.00    0.0
2019/11/25 09:14:09.000   4064051.9029    246441.3274   4893144.8916   5  14   3.2181   1.6459   3.5736   0.5076   0.6962   2.7977   0.00    0.0
2019/11/25 09:14:10.000   4064028.6972    246438.9520   4893155.8191   5  13   3.2274   1.8517   3.5958   0.6819   0.3845   2.7804   0.00    0.0
2019/11/25 09:14:11.000   4064025.9072    246449.7590   4893170.8601   5  13   3.2679   1.6673   4.2240   0.3295  -0.3357   3.0175   0.00    0.0
2019/11/25 09:14:12.000   4064007.1202    246450.5695   4893182.9635   5  12   3.9133   1.9739   4.2838   1.5440   0.7989   3.2612   0.00    0.0
2019/11/25 09:14:13.000   4063994.4363    246452.1203   4893198.3811   5  11   5.6287   2.0185   4.8374   0.8232  -0.5562   4.4411   0.00    0.0
2019/11/25 09:14:14.000   4063972.9137    246455.6462   4893207.2851   5  14   3.2185   1.6460   3.5743   0.5122   0.6992   2.7981   0.00    0.0
2019/11/25 09:14:15.000   4063961.7464    246459.3218   4893224.4099   5  13   3.8879   1.9471   3.6708   1.5912   1.1656   3.1067   0.00    0.0
2019/11/25 09:14:16.000   4063945.4343    246463.5706   4893235.0879   5  13   3.8879   1.9471   3.6708   1.5915   1.1658   3.1066   0.00    0.0
2019/11/25 09:14:17.000   4063926.2012    246465.7744   4893246.6512   5  13   3.8879   1.9472   3.6709   1.5918   1.1660   3.1065   0.00    0.0
2019/11/25 09:14:18.000   4063909.6432    246469.2245   4893259.6454   5  13   3.8878   1.9473   3.6709   1.5922   1.1662   3.1064   0.00    0.0
2019/11/25 09:14:19.000   4063893.0908    246472.0686   4893272.0229   5  14   3.2189   1.6460   3.5751   0.5169   0.7021   2.7984   0.00    0.0
2019/11/25 09:14:20.000   4063880.9592    246476.7049   4893286.2354   5  13   3.8878   1.9475   3.6710   1.5928   1.1666   3.1061   0.00    0.0
2019/11/25 09:14:21.000   4063866.5616    246478.0984   4893300.7181   5  13   3.8877   1.9476   3.6710   1.5932   1.1668   3.1060   0.00    0.0
2019/11/25 09:14:22.000   4063844.4640    246481.8535   4893311.4107   5  14   3.2192   1.6461   3.5755   0.5196   0.7039   2.7987   0.00    0.0
2019/11/25 09:14:23.000   4063831.0586    246486.7451   4893325.6671   5  14   3.2193   1.6461   3.5757   0.5206   0.7045   2.7987   0.00    0.0
2019/11/25 09:14:24.000   4063815.6081    246487.8819   4893340.4029   5  13   3.2286   1.8520   3.5975   0.6921   0.4030   2.7815   0.00    0.0
2019/11/25 09:14:25.000   4063804.3432    246491.5170   4893354.4661   5  14   3.2194   1.6461   3.5760   0.5224   0.7057   2.7989   0.00    0.0
2019/11/25 09:14:26.000   4063783.7238    246496.6927   4893363.3276   5  13   3.8876   1.9480   3.6712   1.5948   1.1678   3.1054   0.00    0.0
2019/11/25 09:14:27.000   4063769.1815    246497.6387   4893377.5160   5  14   3.2196   1.6461   3.5763   0.5242   0.7068   2.7990   0.00    0.0
2019/11/25 09:14:28.000   4063755.3916    246500.4754   4893392.2217   5  13   3.8875   1.9481   3.6713   1.5955   1.1682   3.1051   0.00    0.0
2019/11/25 09:14:29.000   4063736.7189    246504.7231   4893401.4533   5  14   3.2197   1.6461   3.5765   0.5260   0.7080   2.7991   0.00    0.0
2019/11/25 09:14:30.000   4063720.9088    246507.3438   4893416.3445   5  13   3.8874   1.9483   3.6714   1.5961   1.1686   3.1049   0.00    0.0
2019/11/25 09:14:31.000   4063711.1273    246510.3409   4893433.1695   5  13   3.8874   1.9484   3.6714   1.5965   1.1687   3.1047   0.00    0.0
2019/11/25 09:14:32.000   4063688.8307    246513.5159   4893441.6454   5  14   3.2200   1.6462   3.5770   0.5287   0.7098   2.7993   0.00    0.0
2019/11/25 09:14:33.000   4063674.8596    246515.7106   4893454.6907   5  13   3.2712   1.6671   4.2353   0.3589  -0.3042   3.0238   0.00    0.0
2019/11/25 09:14:34.000   4063660.4333    246519.3447   4893466.1778   5  12   3.9135   1.9753   4.2928   1.5510   0.8045   3.2623   0.00    0.0
2019/11/25 09:14:35.000   4063649.6697    246522.4343   4893479.3383   5  14   3.2202   1.6462   3.5774   0.5314   0.7115   2.7995   0.00    0.0
2019/11/25 09:14:36.000   4063632.3327    246523.8337   4893488.0599   5  13   3.2716   1.6671   4.2368   0.3627  -0.2997   3.0246   0.00    0.0
2019/11/25 09:14:37.000   4063620.5528    246527.4306   4893500.7972   5  13   3.2718   1.6671   4.2373   0.3640  -0.2981   3.0249   0.00    0.0
2019/11/25 09:14:38.000   4063610.5759    246528.9855   4893513.5037   5  13   3.8871   1.9489   3.6717   1.5988   1.1701   3.1039   0.00    0.0
2019/11/25 09:14:39.000   4063595.3656    246530.8829   4893519.1256   5  14   3.2205   1.6463   3.5780   0.5350   0.7138   2.7998   0.00    0.0
2019/11/25 09:14:40.000   4063585.4969    246536.3323   4893528.1413   5  14   3.2206   1.6463   3.5782   0.5359   0.7144   2.7999   0.00    0.0
2019/11/25 09:14:41.000   4063570.9917    246541.9977   4893533.2738   5  14   3.2207   1.6463   3.5783   0.5368   0.7150   2.7999   0.00    0.0
2019/11/25 09:14:42.000   4063563.8820    246550.4495   4893540.9909   5  14   3.2208   1.6463   3.5785   0.5377   0.7156   2.8000   0.00    0.0
2019/11/25 09:14:43.000   4063557.4868    246561.3125   4893545.4156   5  14   3.2208   1.6463   3.5786   0.5386   0.7161   2.8001   0.00    0.0
2019/11/25 09:14:44.000   4063550.2953    246573.8281   4893550.0979   5  14   3.2209   1.6463   3.5787   0.5394   0.7167   2.8001   0.00    0.0
2019/11/25 09:14:45.000   4063545.6145    246586.1781   4893555.7287   5  14   3.2210   1.6464   3.5789   0.5403   0.7173   2.8002   0.00    0.0
2019/11/25 09:14:46.000   4063540.5162    246600.0416   4893557.1028   5  14   3.2211   1.6464   3.5790   0.5412   0.7179   2.8003   0.00    0.0
2019/11/25 09:14:47.000   4063537.6460    246615.4199   4893564.2015   5  13   3.2733   1.6670   4.2424   0.3764  -0.2823   3.0277   0.00    0.0
2019/11/25 09:14:48.000   4063538.2649    246633.1994   4893565.1071   5  13   3.2734   1.6670   4.2429   0.3776  -0.2807   3.0280   0.00    0.0
2019/11/25 09:14:49.000   4063533.4921    246648.6391   4893566.3551   5  13   3.2736   1.6670   4.2434   0.3788  -0.2790   3.0283   0.00    0.0
2019/11/25 09:14:50.000   4063531.5117    246666.1384   4893567.4204   5  14   3.2214   1.6464   3.5796   0.5447   0.7201   2.8005   0.00    0.0
2019/11/25 09:14:51.000   4063530.2845    246683.5090   4893567.7788   5  13   3.2739   1.6670   4.2444   0.3812  -0.2757   3.0288   0.00    0.0
2019/11/25 09:14:52.000   4063525.3870    246702.1270   4893566.9094   5  13   3.2740   1.6670   4.2449   0.3824  -0.2741   3.0291   0.00    0.0
2019/11/25 09:14:53.000   4063522.3993    246720.1732   4893567.8070   5  13   3.2742   1.6670   4.2454   0.3836  -0.2724   3.0294   0.00    0.0
2019/11/25 09:14:54.000   4063517.8064    246737.8257   4893567.3303   5  13   3.2743   1.6670   4.2460   0.3848  -0.2707   3.0297   0.00    0.0
2019/11/25 09:14:55.000   4063516.5617    246754.9368   4893569.7152   5  14   3.2218   1.6465   3.5803   0.5490   0.7230   2.8009   0.00    0.0
2019/11/25 09:14:56.000   4063514.1272    246771.9630   4893570.6317   5  14   3.2219   1.6465   3.5805   0.5499   0.7236   2.8009   0.00    0.0
2019/11/25 09:14:57.000   4063511.8160    246789.5216   4893573.0979   5  13   3.2748   1.6670   4.2475   0.3884  -0.2656   3.0305   0.00    0.0
2019/11/25 09:14:58.000   4063506.4372    246806.8148   4893573.8817   5  13   3.2749   1.6670   4.2480   0.3896  -0.2638   3.0308   0.00    0.0
2019/11/25 09:14:59.000   4063501.8690    246824.7554   4893576.5564   5  13   3.2751   1.6670   4.2485   0.3907  -0.2621   3.0310   0.00    0.0
2019/11/25 09:15:00.000   4063497.4875    246843.3919   4893578.6735   5  13   3.2752   1.6670   4.2490   0.3919  -0.2603   3.0313   0.00    0.0
2019/11/25 09:15:01.000   4063495.1915    246862.8083   4893582.7845   5  13   3.2753   1.6670   4.2495   0.3931  -0.2585   3.0316   0.00    0.0
2019/11/25 09:15:02.000   4063492.2092    246880.7115   4893588.2361   5  13   3.2755   1.6670   4.2500   0.3942  -0.2568   3.0319   0.00    0.0
2019/11/25 09:15:03.000   4063485.6401    246901.5086   4893589.0781   5  13   3.2756   1.6670   4.2505   0.3954  -0.2550   3.0322   0.00    0.0
2019/11/25 09:15:04.000   4063479.8134    246921.2677   4893592.2010   5  13   3.2758   1.6670   4.2510   0.3966  -0.2531   3.0324   0.00    0.0
2019/11/25 09:15:05.000   4063474.8769    246941.1552   4893596.1734   5  13   3.2759   1.6670   4.2515   0.3977  -0.2513   3.0327   0.00    0.0
2019/11/25 09:15:06.000   4063468.0930    246960.8843   4893598.8950   5  12   3.9135   1.9775   4.3058   1.5609   0.8123   3.2637   0.00    0.0
2019/11/25 09:15:07.000   4063460.9076    246979.2949   4893601.2127   5  13   3.2762   1.6670   4.2525   0.4000  -0.2476   3.0333   0.00    0.0
2019/11/25 09:15:08.000   4063457.3359    246998.8361   4893607.9992   5  14   3.2228   1.6467   3.5822   0.5602   0.7303   2.8017   0.00    0.0
2019/11/25 09:15:09.000   4063452.2064    247015.3992   4893613.1977   5  14   3.2229   1.6468   3.5823   0.5610   0.7309   2.8017   0.00    0.0
2019/11/25 09:15:10.000   4063447.4931    247031.1686   4893617.6210   5  13   3.2767   1.6670   4.2540   0.4035  -0.2420   3.0341   0.00    0.0
2019/11/25 09:15:11.000   4063442.2430    247048.3452   4893620.2742   5  13   3.2768   1.6670   4.2545   0.4046  -0.2401   3.0344   0.00    0.0
2019/11/25 09:15:12.000   4063440.5455    247065.0540   4893620.6772   5  12   3.9135   1.9779   4.3082   1.5628   0.8137   3.2639   0.00    0.0
2019/11/25 09:15:13.000   4063435.8744    247082.1832   4893619.3172   5  11   3.9462   2.0354   5.3957   1.6390   1.4902   3.5071   0.00    0.0
2019/11/25 09:15:14.000   4063438.5157    247098.7806   4893620.6749   5  13   3.2773   1.6670   4.2560   0.4080  -0.2342   3.0352   0.00    0.0
2019/11/25 09:15:15.000   4063445.5726    247117.3838   4893628.5770   5  13   3.2774   1.6670   4.2565   0.4091  -0.2322   3.0355   0.00    0.0
2019/11/25 09:15:16.000   4063433.1174    247131.3736   4893623.5111   5  13   3.2776   1.6670   4.2570   0.4103  -0.2302   3.0357   0.00    0.0
2019/11/25 09:15:17.000   4063425.6438    247143.4788   4893623.6736   5  12   3.9135   1.9783   4.3102   1.5643   0.8148   3.2641   0.00    0.0
2019/11/25 09:15:18.000   4063423.8466    247157.1881   4893624.9606   5  13   3.2778   1.6670   4.2580   0.4125  -0.2262   3.0363   0.00    0.0
2019/11/25 09:15:19.000   4063419.5305    247169.0602   4893628.5679   5  12   3.9134   1.9784   4.3110   1.5649   0.8153   3.2642   0.00    0.0
2019/11/25 09:15:20.000   4063410.5648    247173.6456   4893632.9210   5  13   3.2781   1.6669   4.2590   0.4147  -0.2220   3.0368   0.00    0.0
2019/11/25 09:15:21.000   4063402.7930    247178.3933   4893640.1837   5  13   3.2783   1.6669   4.2595   0.4158  -0.2199   3.0371   0.00    0.0
2019/11/25 09:15:22.000   4063393.1230    247181.9326   4893644.8556   5  14   3.2239   1.6470   3.5841   0.5719   0.7381   2.8025   0.00    0.0
2019/11/25 09:15:23.000   4063386.7661    247181.4801   4893657.5440   5  13   3.2335   1.8535   3.6042   0.7339   0.4734   2.7858   0.00    0.0
2019/11/25 09:15:24.000   4063376.0074    247180.7261   4893665.9312   5  14   3.2240   1.6470   3.5844   0.5736   0.7393   2.8026   0.00    0.0
2019/11/25 09:15:25.000   4063361.8532    247178.3658   4893675.1328   5  14   3.2241   1.6470   3.5846   0.5744   0.7398   2.8027   0.00    0.0
