 3.03 OBSERVATION DATA M: Mixed RINEX VERSION / TYPE
RTKCONV 2.4.3 b33 20191125 135756 UTC PGM / RUN BY / DATE 
log: C:\Users\henri\Nextcloud\M2\Projet S1\data_blox\very COMMENT 
format: u-blox COMMENT 
 MARKERNAME 
 MARKERNUMBER
 MARKERTYPE 
 OBSERVER/ AGENCY 
 REC # / TYPE / VERS 
 ANT # / TYPE 
 4063320.4876 244285.1881 4893859.0427 APPROX POSITION XYZ 
 0.0000 0.0000 0.0000 ANTENNA: DELTA H/E/N
G4 C1C L1C D1C S1C SYS / # / OBS TYPES 
R4 C1C L1C D1C S1C SYS / # / OBS TYPES 
E 4 C1C L1C D1C S1C SYS / # / OBS TYPES 
J 4 C1C L1C D1C S1C SYS / # / OBS TYPES 
S 4 C1C L1C D1C S1C SYS / # / OBS TYPES 
C 4 C2I L2I D2I S2I SYS / # / OBS TYPES 
 2019 11 25 12 24 55.9920000 GPS TIME OF FIRST OBS 
 2019 11 25 13 3 20.9930000 GPS TIME OF LAST OBS 
GSYS / PHASE SHIFT 
RSYS / PHASE SHIFT 
E SYS / PHASE SHIFT 
J SYS / PHASE SHIFT 
S SYS / PHASE SHIFT 
C SYS / PHASE SHIFT 
 0 GLONASS SLOT / FRQ #
 C1C 0.000 C1P 0.000 C2C 0.000 C2P 0.000 GLONASS COD/PHS/BIS 
 END OF HEADER
> 2019 11 25 12 24 55.9920000 0 20 
G9 18480466.563 97115518.392 -2370.331 48.000 
G2 19623592.216 103122685.308 -623.500 45.000 
G7 18907088.474 99357417.364 1065.498 49.000 
R18 19987257.586 106693242.040 -4398.487 47.000 
G5 20691315.932 108733646.889 2679.637 42.000 
R19 18821950.878 100684706.646 -1323.213 37.000 
G6 19685752.169 103449316.193 -3372.022 48.000 
R3 16999845.201 91001467.197 42.027 49.000 
G4 19027566.051 99990528.214 -2826.178 45.000 
G23 20567885.237 108084943.117 -3222.639 44.000 
R10 21137642.035 3 -4293.604 16.000 
R11 20984834.624 112136330.8423 -4138.035 33.000 
R2 18514279.445 98795659.315 -3140.015 47.000 
G30 20387543.431 107137257.058 2801.666 47.000 
R13 18792105.272 100348733.349 2958.641 41.000 
R20 21148922.865 3 2544.812 19.000 
G16 21640376.544 113720960.209 -594.484 30.000 
R12 18186940.188 97151279.532 -1102.339 48.000 
G29 22367499.956 117542024.480 -332.012 42.000 
G26 22752459.969 119564980.5162 -2283.490 32.000 
> 2019 11 25 12 24 56.9920000 0 21 
G9 18480917.677 97117888.725 -2370.587 48.000 
G2 19623710.869 103123308.730 -623.846 45.000 
G7 18906885.607 99356351.921 1065.165 49.000 
R18 19988081.637 106697640.351 -4398.419 47.000 
G5 20690806.324 108730967.117 2679.673 42.000 
R19 18822198.060 100686029.732 -1323.712 37.000 
G6 19686394.023 103452688.211 -3372.284 48.000 
R3 16999836.939 91001425.167 41.781 49.000 
G4 19028103.754 99993354.384 -2826.511 45.000 
G23 20568498.507 108088165.850 -3222.905 44.000 
R10 21138448.095 3 -4293.604 12.000 
R11 20985615.661 112140469.9432 -4139.060 32.000 
R2 18514868.102 98798799.329 -3140.259 46.000 
G30 20387010.091 107134455.233 2801.735 47.000 
R13 18791551.376 100345774.561 2958.377 41.000 
R20 21148446.832 3 2559.602 19.000 
G16 21640489.665 113721553.756 -594.038 29.000 
R12 18187146.615 97152382.161 -1103.200 48.000 
G29 22367563.012 117542356.519 -332.377 42.000 
G26 22752893.328 119567263.7702 -2283.709 33.000 
R26 20433508.037 108960377.158 1970.213 41.000 
> 2019 11 25 12 24 57.9920000 0 20 
G9 18481368.879 97120259.646 -2371.362 48.000 
G2 19623830.001 103123932.992 -624.797 45.000 
G7 18906682.905 99355287.240 1064.204 49.000 
R18 19988905.209 106702039.304 -4399.409 46.000 
G5 20690296.612 108728287.774 2678.801 42.000 
R19 18822445.461 100687354.007 -1325.242 37.000 
G6 19687035.920 103456060.899 -3373.060 48.000 
R3 16999828.440 91001383.827 40.843 49.000 
G4 19028641.814 99996181.070 -2827.079 45.000 
G23 20569111.891 108091388.994 -3223.484 44.000 
R10 21139253.240 3 -4293.604 11.000 
R11 20986392.876 112144609.7812 -4139.975 32.000 
R2 18515456.279 98801939.875 -3140.881 46.000 
G30 20386476.848 107131653.899 2801.016 47.000 
R13 18790997.524 100342816.570 2957.399 41.000 
R20 21147969.944 3 2554.598 18.000 
G16 21640603.911 113722148.280 -595.362 29.000 
R12 18187353.488 97153485.959 -1104.470 48.000 
G29 22367626.252 117542689.454 -333.434 42.000 
G26 22753327.280 119569547.7922 -2284.912 33.000 
> 2019 11 25 12 24 58.9920000 0 20 
G9 18481819.897 97122631.268 -2371.722 48.000 
G2 19623949.195 103124558.205 -625.544 45.000 
G7 18906480.387 99354223.427 1063.484 49.000 
R18 19989729.191 106706438.982 -4399.767 46.000 
G5 20689786.464 108725608.916 2678.803 42.000 
R19 18822692.948 100688679.545 -1326.103 37.000 
G6 19687677.748 103459434.376 -3373.679 48.000 
R3 16999820.317 91001343.283 40.322 49.000 
G4 19029179.664 99999008.375 -2827.419 45.000 
G23 20569725.432 108094612.630 -3223.655 44.000 
R10 21140060.007 3 -4293.604 13.000 
R11 20987161.838 112148749.9041 -4140.606 32.000 
R2 18516044.709 98805081.114 -3141.297 47.000 
G30 20385943.787 107128853.187 2800.629 47.000 
R13 18790444.020 100339859.490 2956.851 41.000 
R20 21147493.012 3 2550.445 18.000 
G16 21640718.943 113722743.833 -596.151 29.000 
R12 18187560.185 97154591.045 -1105.493 48.000 
G29 22367689.439 117543023.366 -334.255 42.000 
G26 22753761.913 119571832.6762 -2285.129 34.000 
> 2019 11 25 12 24 59.9920000 0 20 
G9 18482271.291 97125003.198 -2372.028 48.000 
G2 19624068.232 103125183.951 -625.847 45.000 
G7 18906278.130 99353160.072 1063.235 49.000 
R18 19990553.146 106710839.024 -4399.898 46.000 
G5 20689276.708 108722930.192 2678.979 42.000 
R19 18822940.838 100690005.932 -1326.796 37.000 
G6 19688320.186 103462808.218 -3373.664 48.000 
R3 16999811.863 91001303.131 40.249 48.000 
G4 19029718.108 100001835.913 -2827.407 45.000 
G23 20570339.575 108097836.370 -3223.582 45.000 
R10 21140869.296 3 -4296.916 16.000 
R11 20987937.430 112152890.834 -4140.623 33.000 
R2 18516633.270 98808222.583 -3141.345 47.000 
G30 20385410.700 107126052.693 2800.468 47.000 
R13 18789890.857 100336902.910 2956.399 41.000 
R20 21147019.256 3 2544.980 19.000 
G16 21640828.810 113723339.912 -595.904 29.000 
R12 18187766.866 97155696.973 -1106.192 48.000 
G29 22367752.967 117543357.844 -334.640 42.000 
G26 22754196.633 119574117.9822 -2285.242 34.000 
> 2019 11 25 12 25 0.9920000 0 20 
G9 18482722.248 97127375.108 -2372.052 48.000 
G2 19624187.225 103125809.938 -626.234 45.000 
G7 18906075.463 99352096.881 1062.964 49.000 
R18 19991377.259 106715239.097 -4400.218 46.000 
G5 20688766.935 108720251.320 2678.751 42.000 
R19 18823188.927 100691332.888 -1327.055 37.000 
G6 19688962.520 103466182.158 -3374.025 48.000 
R3 16999803.391 91001263.097 39.940 48.000 
G4 19030256.264 100004663.397 -2827.703 45.000 
G23 20570953.919 108101059.917 -3223.587 45.000 
R10 21141673.847 3 -4297.988 20.000 
R11 20988710.352 112157031.925 -4141.131 33.000 
R2 18517221.883 98811363.989 -3141.479 47.000 
G30 20384877.256 107123252.097 2800.496 47.000 
R13 18789337.406 100333946.524 2956.039 41.000 
R20 21146545.945 3 2535.725 21.000 
G16 21640947.943 113723936.444 -596.674 29.000 
R12 18187973.651 97156803.462 -1106.855 48.000 
G29 22367816.538 117543692.617 -335.074 42.000 
G26 22754631.222 119576403.510 -2285.665 34.000 
> 2019 11 25 12 25 1.9920000 0 20 
G9 18483173.825 97129747.564 -2372.845 48.000 
G2 19624306.593 103126436.720 -627.423 45.000 
G7 18905873.372 99351034.393 1061.920 49.000 
R18 19992201.581 106719639.704 -4401.002 47.000 
G5 20688256.647 108717572.777 2678.173 42.000 
R19 18823437.375 100692660.960 -1329.019 37.000 
G6 19689604.784 103469556.696 -3375.140 48.000 
R3 16999795.835 91001223.695 38.981 49.000 
G4 19030794.167 100007491.333 -2828.506 45.000 
G23 20571567.966 108104283.805 -3224.199 45.000 
R10 21142478.389 3 -4304.635 19.000 
R11 20989480.160 112161173.697 -4142.036 32.000 
R2 18517810.331 98814505.879 -3142.260 46.000 
G30 20384344.300 107120451.953 2799.635 47.000 
R13 18788784.164 100330990.875 2954.762 41.000 
R20 21146065.759 3 2545.162 23.000 
G16 21641056.125 113724533.809 -597.682 29.000 
R12 18188180.357 97157911.048 -1108.161 47.000 
G29 22367879.847 117544028.211 -336.230 42.000 
G26 22755066.090 119578689.737 -2286.238 34.000 
> 2019 11 25 12 25 2.9920000 0 20 
G9 18483625.018 97132120.266 -2372.845 48.000 
G2 19624426.450 103127063.998 -627.655 45.000 
G7 18905671.351 99349972.346 1061.631 49.000 
R18 19993026.750 106724040.610 -4401.238 47.000 
G5 20687746.839 108714894.324 2678.194 42.000 
R19 18823685.901 100693989.842 -1329.412 37.000 
G6 19690247.275 103472931.573 -3375.179 48.000 
R3 16999789.029 91001184.648 38.779 49.000 
G4 19031332.314 100010319.458 -2828.470 45.000 
G23 20572181.524 108107507.756 -3224.058 45.000 
R10 21143283.158 3 -4295.475 18.000 
R11 20990252.559 112165315.876 -4142.829 32.000 
R2 18518398.787 98817647.970 -3142.328 46.000 
G30 20383811.432 107117651.984 2799.675 47.000 
R13 18788230.739 100328035.676 2954.821 41.000 
R20 21145585.520 3 2547.650 24.000 
G16 21641175.991 113725131.768 -598.384 29.000 
R12 18188387.430 97159019.469 -1108.956 47.000 
G29 22367943.252 117544364.341 -336.579 41.000 
G26 22755501.036 119580976.455 -2286.847 34.000 
> 2019 11 25 12 25 3.9920000 0 20 
G9 18484076.542 97134493.124 -2373.218 48.000 
G2 19624545.931 103127691.673 -628.173 45.000 
G7 18905468.893 99348910.600 1061.426 48.000 
R18 19993851.211 106728441.687 -4401.367 47.000 
G5 20687237.214 108712215.828 2678.379 42.000 
R19 18823934.235 100695319.399 -1330.043 37.000 
G6 19690889.548 103476306.681 -3375.394 48.000 
R3 16999782.485 91001145.807 38.486 49.000 
G4 19031870.566 100013147.665 -2828.560 45.000 
G23 20572795.170 108110731.679 -3224.067 45.000 
R10 21144086.697 3 -4290.260 18.000 
R11 20991030.586 112169458.221 -4142.980 31.000 
R2 18518987.156 98820790.144 -3142.304 46.000 
G30 20383278.799 107114852.071 2799.709 47.000 
R13 18787677.280 100325080.829 2954.872 41.000 
R20 21145103.903 3 2548.440 24.000 
G16 21641292.907 113725730.225 -599.095 29.000 
R12 18188594.189 97160128.617 -1109.737 47.000 
G29 22368006.675 117544700.896 -336.881 41.000 
G26 22755936.070 119583263.477 -2287.792 34.000 
> 2019 11 25 12 25 4.9920000 0 20 
G9 18484528.424 97136866.660 -2374.030 48.000 
G2 19624665.265 103128320.275 -629.123 45.000 
G7 18905267.160 99347849.701 1060.436 48.000 
R18 19994675.961 106732843.507 -4402.165 47.000 
G5 20686727.947 108709537.861 2677.771 42.000 
R19 18824183.354 100696650.266 -1331.764 37.000 
G6 19691532.396 103479682.536 -3376.063 49.000 
R3 16999775.706 91001107.731 37.639 49.000 
G4 19032408.801 100015976.475 -2829.025 45.000 
G23 20573409.068 108113956.072 -3224.750 45.000 
R10 21144890.035 3 -4302.440 19.000 
R11 20991815.819 112173601.456 -4143.934 30.000 
R2 18519575.813 98823932.980 -3143.195 46.000 
G30 20382746.314 107112052.755 2798.847 47.000 
R13 18787124.108 100322126.885 2953.736 41.000 
R20 21144628.742 3 2541.092 25.000 
G16 21641406.796 113726329.672 -600.420 29.000 
R12 18188801.515 97161238.995 -1111.025 47.000 
G29 22368070.220 117545038.415 -338.037 41.000 
G26 22756371.209 119585551.317 -2287.948 35.000 
> 2019 11 25 12 25 5.9920000 0 20 
G9 18484980.411 97139240.724 -2373.975 48.000 
G2 19624784.999 103128949.657 -629.365 45.000 
G7 18905065.287 99346789.516 1060.029 48.000 
R18 19995500.789 106737245.892 -4402.389 47.000 
G5 20686218.767 108706860.266 2677.439 42.000 
R19 18824432.107 100697982.214 -1332.297 37.000 
G6 19692174.687 103483059.021 -3376.628 48.000 
R3 16999769.546 91001070.310 37.333 49.000 
G4 19032947.411 100018805.769 -2829.274 45.000 
G23 20574022.662 108117180.809 -3224.573 46.000 
R10 21145700.048 3 -4304.556 22.000 
R11 20992589.100 112177745.306 -4145.044 29.000 
R2 18520164.697 98827076.318 -3143.384 46.000 
G30 20382213.899 107109253.883 2798.866 47.000 
R13 18786571.311 100319173.685 2953.368 41.000 
R20 21144151.007 3 2540.660 25.000 
G16 21641514.822 113726929.971 -600.615 29.000 
R12 18189009.426 97162350.482 -1111.811 47.000 
G29 22368134.009 117545376.805 -338.879 41.000 
G26 22756806.731 119587839.895 -2288.597 35.000 
> 2019 11 25 12 25 6.9920000 0 20 
G9 18485432.537 97141615.077 -2374.133 48.000 
G2 19624904.917 103129579.595 -629.935 45.000 
G7 18904863.502 99345729.783 1059.835 48.000 
R18 19996325.452 106741648.596 -4402.644 47.000 
G5 20685709.857 108704182.775 2677.857 42.000 
R19 18824681.497 100699315.028 -1333.373 37.000 
G6 19692817.483 103486435.888 -3376.983 48.000 
R3 16999763.107 91001033.279 37.102 49.000 
G4 19033485.444 100021635.294 -2829.487 45.000 
G23 20574636.290 108120405.644 -3224.494 46.000 
R10 21146506.397 3 -4299.872 23.000 
R11 20993345.584 112181889.610 -4144.329 28.000 
R2 18520753.458 98830219.870 -3143.433 46.000 
G30 20381681.519 107106455.229 2798.910 47.000 
R13 18786018.375 100316220.975 2952.485 41.000 
R20 21143669.460 3 2540.651 26.000 
G16 21641629.025 113727530.953 -601.071 28.000 
R12 18189217.380 97163462.853 -1112.395 47.000 
G29 22368197.912 117545715.742 -339.180 40.000 
G26 22757241.975 119590128.943 -2289.493 35.000 
> 2019 11 25 12 25 7.9920000 0 20 
G9 18485884.437 97143989.434 -2374.548 48.000 
G2 19625024.704 103130209.745 -630.382 45.000 
G7 18904661.847 99344670.211 1059.307 48.000 
R18 19997150.419 106746051.277 -4402.816 47.000 
G5 20685200.451 108701505.091 2677.590 42.000 
R19 18824930.538 100700648.400 -1334.213 37.000 
G6 19693460.131 103489812.788 -3377.124 48.000 
R3 16999756.258 91000996.311 36.664 49.000 
G4 19034024.054 100024464.719 -2829.620 45.000 
G23 20575249.726 108123630.291 -3224.667 46.000 
R10 21147314.525 3 -4300.971 23.000 
R11 20994111.823 112186033.874 -4144.035 27.000 
R2 18521342.612 98833363.356 -3143.756 46.000 
G30 20381148.947 107103656.466 2798.670 48.000 
R13 18785465.534 100313268.431 2952.029 41.000 
R20 21143189.553 2 2539.198 27.000 
G16 21641750.365 113728132.141 -601.105 28.000 
R12 18189425.840 97164575.785 -1113.498 47.000 
G29 22368262.356 117546054.945 -339.681 41.000 
G26 22757677.506 119592418.143 -2289.446 35.000 
> 2019 11 25 12 25 8.9920000 0 20 
G9 18486336.363 97146364.242 -2375.214 48.000 
G2 19625144.893 103130840.604 -631.389 45.000 
G7 18904460.410 99343611.256 1058.328 48.000 
R18 19997975.562 106750454.432 -4403.591 47.000 
G5 20684691.061 108698827.680 2676.964 42.000 
R19 18825180.590 100701982.763 -1334.710 37.000 
G6 19694102.997 103493190.241 -3377.838 48.000 
R3 16999749.312 91000959.888 35.885 49.000 
G4 19034562.708 100027294.534 -2830.215 45.000 
G23 20575863.215 108126855.201 -3225.372 46.000 
R10 21148124.189 3 -4302.708 25.000 
R11 20994886.403 112190178.689 -4145.055 27.000 
R2 18521931.749 98836507.208 -3144.330 46.000 
G30 20380616.524 107100858.071 2798.069 47.000 
R13 18784912.493 100310316.518 2951.617 41.000 
R20 21142715.107 113059564.7042 2538.688 27.000 
G16 21641868.921 113728734.268 -602.622 28.000 
R12 18189634.536 97165689.710 -1114.725 47.000 
G29 22368326.599 117546394.894 -340.410 41.000 
G26 22758112.872 119594707.956 -2290.203 35.000 
> 2019 11 25 12 25 9.9920000 0 20 
G9 18486788.262 97148739.868 -2375.940 48.000 
G2 19625265.168 103131472.545 -632.159 45.000 
G7 18904258.887 99342553.289 1057.793 48.000 
R18 19998800.573 106754858.446 -4404.111 47.000 
G5 20684181.698 108696150.939 2676.776 42.000 
R19 18825430.355 100703318.604 -1336.044 37.000 
G6 19694745.950 103496568.611 -3378.617 48.000 
R3 16999742.568 91000924.409 35.303 49.000 
G4 19035101.370 100030125.109 -2830.682 45.000 
G23 20576477.567 108130080.726 -3225.516 46.000 
R10 21148931.671 3 -4302.841 25.000 
R11 20995659.212 112194324.541 -4146.115 27.000 
R2 18522520.886 98839651.817 -3144.770 46.000 
G30 20380084.248 107098060.427 2797.562 47.000 
R13 18784359.705 100307365.675 2950.467 41.000 
R20 21142231.702 113057026.4812 2538.036 29.000 
G16 21641983.473 113729337.472 -603.753 29.000 
R12 18189843.346 97166805.025 -1115.687 47.000 
G29 22368391.540 117546735.944 -340.859 41.000 
G26 22758548.682 119596998.756 -2290.895 35.000 
> 2019 11 25 12 25 10.9920000 0 20 
G9 18487240.677 97151115.865 -2376.245 48.000 
G2 19625385.435 103132105.094 -632.849 45.000 
G7 18904057.555 99341495.874 1056.992 48.000 
R18 19999626.029 106759262.903 -4404.932 47.000 
G5 20683672.239 108693474.413 2676.149 42.000 
R19 18825680.513 100704655.363 -1336.959 37.000 
G6 19695388.964 103499947.422 -3379.205 48.000 
R3 16999735.745 91000889.406 34.607 49.000 
G4 19035640.014 100032955.987 -2831.183 45.000 
G23 20577091.631 108133306.426 -3225.890 46.000 
R10 21149736.676 3 -4306.415 25.000 
R11 20996434.813 112198470.887 -4146.958 27.000 
R2 18523110.267 98842796.722 -3145.245 46.000 
G30 20379551.842 107095263.070 2797.024 47.000 
R13 18783807.292 100304415.388 2949.904 41.000 
R20 21141759.682 113054488.9682 2537.642 28.000 
G16 21642095.530 113729941.412 -604.845 29.000 
R12 18190051.684 97167921.314 -1116.872 47.000 
G29 22368456.734 117547077.694 -342.128 41.000 
G26 22758984.431 119599290.151 -2291.876 34.000 
> 2019 11 25 12 25 11.9920000 0 20 
G9 18487692.881 97153492.146 -2376.483 48.000 
G2 19625506.025 103132738.183 -633.236 45.000 
G7 18903856.144 99340438.893 1056.812 48.000 
R18 20000451.381 106763667.667 -4404.883 48.000 
G5 20683163.042 108690797.980 2676.410 42.000 
R19 18825930.278 100705992.977 -1337.960 37.000 
G6 19696032.005 103503326.595 -3379.223 48.000 
R3 16999729.070 91000854.763 34.421 49.000 
G4 19036178.807 100035787.077 -2831.115 45.000 
G23 20577705.670 108136532.233 -3225.916 46.000 
R10 21150545.328 112823608.2852 -4303.950 26.000 
R11 20997208.067 112202617.549 -4146.849 28.000 
R2 18523699.648 98845941.863 -3145.282 46.000 
G30 20379019.567 107092465.907 2797.195 47.000 
R13 18783255.150 100301465.587 2949.501 41.000 
R20 21141282.384 113051951.9292 2536.938 28.000 
G16 21642206.941 113730545.925 -604.811 29.000 
R12 18190260.703 97169038.456 -1117.463 47.000 
G29 22368521.649 117547419.969 -342.694 41.000 
G26 22759420.364 119601581.976 -2292.263 34.000 
> 2019 11 25 12 25 12.9920000 0 20 
G9 18488145.270 97155868.715 -2376.434 48.000 
G2 19625626.554 103133371.822 -633.869 45.000 
G7 18903654.786 99339382.382 1056.312 48.000 
R18 20001276.846 106768072.786 -4405.299 48.000 
G5 20682654.089 108688121.677 2676.132 42.000 
R19 18826180.418 100707331.458 -1338.801 37.000 
G6 19696675.176 103506706.145 -3379.660 48.000 
R3 16999722.265 91000820.504 34.168 49.000 
G4 19036717.452 100038618.395 -2831.261 45.000 
G23 20578318.992 108139758.135 -3225.925 46.000 
R10 21151352.357 3 -4303.623 26.000 
R11 20997982.159 112206764.617 -4147.500 28.000 
R2 18524289.099 98849087.249 -3145.398 46.000 
G30 20378487.213 107089668.960 2796.764 47.000 
R13 18782702.903 100298516.266 2949.158 42.000 
R20 21140804.169 113049415.5232 2536.297 28.000 
G16 21642319.512 113731151.151 -605.773 29.000 
R12 18190469.765 97170156.492 -1118.422 47.000 
G29 22368586.808 117547762.848 -343.104 41.000 
G26 22759856.951 119603874.284 -2292.839 34.000 
> 2019 11 25 12 25 13.9920000 0 20 
G9 18488597.850 97158245.212 -2376.599 48.000 
G2 19625747.196 103134005.626 -634.068 45.000 
G7 18903453.760 99338325.968 1056.086 48.000 
R18 20002102.285 106772477.819 -4405.160 48.000 
G5 20682144.813 108685445.120 2676.493 42.000 
R19 18826430.445 100708670.390 -1339.306 37.000 
G6 19697318.138 103510085.695 -3379.840 48.000 
R3 16999715.695 91000786.269 34.003 49.000 
G4 19037255.992 100041449.567 -2831.252 45.000 
G23 20578932.673 108142983.758 -3225.686 46.000 
R10 21152159.133 112832216.2542 -4304.329 27.000 
R11 20998751.077 112210911.841 -4148.634 27.000 
R2 18524877.922 98852232.499 -3145.367 46.000 
G30 20377955.182 107086871.833 2796.999 48.000 
R13 18782150.481 100295567.065 2949.189 42.000 
R20 21140324.873 113046879.2382 2535.611 28.000 
G16 21642435.931 113731756.540 -605.910 29.000 
R12 18190679.490 97171274.969 -1118.935 47.000 
G29 22368652.246 117548105.922 -343.300 41.000 
G26 22760293.608 119606166.670 -2292.884 34.000 
> 2019 11 25 12 25 14.9920000 0 20 
G9 18489050.264 97160622.331 -2377.411 49.000 
G2 19625867.794 103134640.296 -635.088 45.000 
G7 18903252.934 99337270.332 1055.215 48.000 
R18 20002927.707 106776883.501 -4405.984 48.000 
G5 20681635.659 108682769.023 2675.867 42.000 
R19 18826681.370 100710010.527 -1340.546 37.000 
G6 19697961.475 103513465.944 -3380.557 48.000 
R3 16999709.421 91000752.774 33.065 49.000 
G4 19037794.889 100044281.285 -2831.786 45.000 
G23 20579546.554 108146209.812 -3226.210 46.000 
R10 21152967.034 112836520.9422 -4305.060 28.000 
R11 20999530.726 112215059.573 -4148.225 28.000 
R2 18525467.687 98855378.325 -3146.149 46.000 
G30 20377422.846 107084075.248 2796.204 47.000 
R13 18781598.383 100292618.718 2947.941 42.000 
R20 21139851.352 113044343.3461 2534.966 27.000 
G16 21642554.244 113732362.885 -606.423 29.000 
R12 18190889.041 97172394.634 -1120.420 47.000 
G29 22368717.632 117548449.907 -344.518 42.000 
G26 22760730.142 119608459.868 -2294.013 34.000 
> 2019 11 25 12 25 15.9920000 0 20 
G9 18489503.281 97163000.008 -2377.911 49.000 
G2 19625988.689 103135275.775 -635.919 45.000 
G7 18903052.283 99336215.437 1054.686 48.000 
R18 20003753.364 106781289.785 -4406.471 48.000 
G5 20681126.488 108680093.288 2675.622 42.000 
R19 18826932.348 100711351.782 -1341.843 38.000 
G6 19698604.577 103516846.825 -3381.058 48.000 
R3 16999702.668 91000719.925 32.746 49.000 
G4 19038333.743 100047113.511 -2832.400 45.000 
G23 20580160.226 108149436.241 -3226.463 46.000 
R10 21153772.885 112840826.2492 -4305.512 27.000 
R11 21000305.839 112219208.155 -4148.603 28.000 
R2 18526057.574 98858524.693 -3146.570 46.000 
G30 20376890.797 107081279.132 2796.065 47.000 
R13 18781046.563 100289671.126 2947.541 42.000 
R20 21139369.133 113041808.738 2535.100 28.000 
G16 21642672.504 113732970.169 -607.742 29.000 
R12 18191098.802 97173515.412 -1121.038 47.000 
G29 22368783.655 117548794.768 -345.440 42.000 
G26 22761166.913 119610753.789 -2294.165 33.000 
> 2019 11 25 12 25 16.9920000 0 20 
G9 18489956.227 97165377.777 -2377.588 49.000 
G2 19626110.082 103135911.595 -635.836 45.000 
G7 18902851.483 99335160.808 1054.515 48.000 
R18 20004578.890 106785696.166 -4406.385 48.000 
G5 20680617.535 108677417.482 2675.881 43.000 
R19 18827183.108 100712693.692 -1342.150 38.000 
G6 19699247.940 103520227.904 -3381.213 48.000 
R3 16999696.211 91000687.256 32.697 49.000 
G4 19038872.684 100049945.754 -2832.332 45.000 
G23 20580774.229 108152662.566 -3226.232 45.000 
R10 21154578.291 112845131.6632 -4306.230 29.000 
R11 21001075.812 112223356.879 -4148.669 27.000 
R2 18526647.610 98861671.097 -3146.332 46.000 
G30 20376358.182 107078483.039 2796.173 47.000 
R13 18780494.752 100286723.850 2947.188 42.000 
R20 21138893.178 113039274.584 2533.893 27.000 
G16 21642783.435 113733577.852 -608.126 29.000 
R12 18191308.544 97174636.882 -1121.697 47.000 
G29 22368849.425 117549139.974 -345.530 42.000 
G26 22761603.665 119613048.028 -2295.210 32.000 
> 2019 11 25 12 25 17.9920000 0 20 
G9 18490409.130 97167756.150 -2378.638 49.000 
G2 19626231.256 103136548.270 -637.208 45.000 
G7 18902650.884 99334106.933 1053.679 48.000 
R18 20005404.486 106790103.189 -4407.364 47.000 
G5 20680108.407 108674742.080 2675.239 42.000 
R19 18827434.077 100714036.778 -1343.707 38.000 
G6 19699891.478 103523609.648 -3382.062 48.000 
R3 16999690.121 91000655.296 31.674 49.000 
G4 19039411.556 100052778.527 -2832.991 45.000 
G23 20581388.111 108155889.301 -3226.947 46.000 
R10 21155386.149 112849437.8252 -4306.748 29.000 
R11 21001856.518 112227506.292 -4149.776 27.000 
R2 18527237.104 98864818.027 -3147.150 46.000 
G30 20375826.605 107075687.454 2795.367 47.000 
R13 18779943.203 100283777.366 2946.337 42.000 
R20 21138423.759 113036741.158 2532.491 28.000 
G16 21642899.226 113734186.510 -609.081 29.000 
R12 18191518.671 97175759.525 -1123.058 47.000 
G29 22368915.849 117549486.081 -346.648 42.000 
G26 22762044.947 119615342.946 -2294.969 31.000 
> 2019 11 25 12 25 18.9920000 0 20 
G9 18490862.033 97170134.794 -2378.265 49.000 
G2 19626352.491 103137185.449 -636.916 45.000 
G7 18902450.468 99333053.511 1053.800 48.000 
R18 20006230.117 106794510.485 -4406.976 47.000 
G5 20679599.332 108672066.787 2675.712 42.000 
R19 18827685.229 100715380.718 -1343.572 37.000 
G6 19700535.103 103526991.723 -3381.596 48.000 
R3 16999684.642 91000623.714 31.953 49.000 
G4 19039950.698 100055611.500 -2832.568 45.000 
G23 20582002.088 108159116.117 -3226.314 45.000 
R10 21156178.913 112853744.3412 -4306.484 28.000 
R11 21002631.089 -4149.283 26.000 
R2 18527826.843 98867965.147 -3146.606 46.000 
G30 20375294.609 107072892.065 2795.901 47.000 
R13 18779391.654 100280831.368 2946.545 42.000 
R20 21137949.043 113034208.265 2533.160 28.000 
G16 21643011.710 113734795.739 -609.154 29.000 
R12 18191728.528 97176883.004 -1123.389 46.000 
G29 22368982.212 117549832.733 -346.322 42.000 
G26 22762486.830 119617638.378 -2295.109 31.000 
> 2019 11 25 12 25 19.9920000 0 20 
G9 18491315.119 97172513.489 -2379.376 49.000 
G2 19626473.701 103137822.953 -638.188 45.000 
G7 18902250.061 99332000.314 1052.644 48.000 
R18 20007055.809 106798917.878 -4407.893 48.000 
G5 20679090.222 108669391.374 2675.039 42.000 
R19 18827936.364 100716725.288 -1345.037 37.000 
G6 19701178.868 103530373.979 -3382.748 48.000 
R3 16999679.939 91000592.306 30.746 49.000 
G4 19040490.206 100058444.472 -2833.478 45.000 
G23 20582616.231 108162342.800 -3227.158 46.000 
R10 21156978.290 112858050.9652 -4307.068 28.000 
R11 21003415.241 112235806.058 -4150.236 26.000 
R2 18528416.747 98871112.259 -3147.601 45.000 
G30 20374762.438 107070096.651 2794.990 47.000 
R13 18778840.289 100277885.644 2945.029 43.000 
R20 21137475.723 113031675.717 2532.044 28.000 
G16 21643129.752 113735405.352 -610.331 29.000 
R12 18191938.489 97178007.084 -1124.863 46.000 
G29 22369048.628 117550179.754 -347.783 42.000 
G26 22762922.265 119619934.033 -2296.191 30.000 
> 2019 11 25 12 25 20.9920000 0 20 
G9 18491767.883 97174893.021 -2380.017 49.000 
G2 19626594.805 103138461.542 -639.150 45.000 
G7 18902049.785 99330948.123 1051.625 48.000 
R18 20007881.021 106803326.154 -4408.894 47.000 
G5 20678581.260 108666716.639 2674.425 42.000 
R19 18828188.144 100718071.256 -1346.464 37.000 
G6 19701822.415 103533757.127 -3383.556 48.000 
R3 16999675.376 91000561.821 29.961 50.000 
G4 19041029.418 100061278.208 -2834.274 45.000 
G23 20583230.566 108165570.126 -3227.470 46.000 
R10 21157790.240 112862358.0541 -4308.365 28.000 
R11 21004186.218 3 -4151.826 25.000 
R2 18529006.312 98874260.144 -3148.181 45.000 
G30 20374230.739 107067302.004 2794.156 47.000 
R13 18778289.289 100274940.947 2944.133 43.000 
R20 21137003.049 113029144.273 2531.293 28.000 
G16 21643245.421 113736016.171 -611.262 29.000 
R12 18192149.078 97179132.568 -1126.137 46.000 
G29 22369114.843 117550527.892 -348.895 42.000 
G26 22763356.112 119622230.732 -2297.268 28.000 
> 2019 11 25 12 25 21.9920000 0 20 
G9 18492220.751 97177273.125 -2380.121 49.000 
G2 19626716.145 103139100.937 -639.786 45.000 
G7 18901849.622 99329896.674 1051.080 48.000 
R18 20008706.966 106807735.022 -4409.076 47.000 
G5 20678072.560 108664042.285 2674.322 42.000 
R19 18828439.960 100719418.372 -1347.302 37.000 
G6 19702465.987 103537140.924 -3384.141 48.000 
R3 16999670.237 91000531.992 29.655 50.000 
G4 19041568.621 100064112.437 -2834.467 45.000 
G23 20583844.796 108168797.826 -3227.589 45.000 
R10 21158597.295 112866666.173 -4308.259 28.000 
R11 21004959.969 3 -4152.398 25.000 
R2 18529596.077 98877408.553 -3148.486 45.000 
G30 20373699.257 107064507.821 2793.945 47.000 
R13 18777738.281 100271997.015 2944.060 42.000 
R20 21136533.586 113026613.700 2530.628 27.000 
G16 21643359.249 113736627.845 -611.715 30.000 
R12 18192360.016 97180259.216 -1127.033 46.000 
G29 22369181.162 117550876.872 -349.435 42.000 
G26 22763785.170 119624528.190 -2297.834 28.000 
> 2019 11 25 12 25 22.9920000 0 20 
G9 18492673.549 97179653.463 -2380.487 49.000 
G2 19626837.651 103139740.803 -640.084 45.000 
G7 18901649.774 99328845.616 1050.840 48.000 
R18 20009532.387 106812144.164 -4409.252 47.000 
G5 20677563.502 108661368.008 2674.300 42.000 
R19 18828691.932 100720766.303 -1348.596 37.000 
G6 19703109.726 103540525.031 -3384.232 48.000 
R3 16999664.539 91000502.471 29.475 50.000 
G4 19042108.103 100066946.837 -2834.485 45.000 
G23 20584458.790 108172025.581 -3227.745 46.000 
R10 21159406.645 112870974.640 -4308.293 28.000 
R11 21005736.076 2 -4150.722 26.000 
R2 18530185.981 98880557.197 -3148.737 45.000 
G30 20373167.314 107061713.768 2794.128 47.000 
R13 18777187.256 100269053.552 2943.477 42.000 
R20 21136061.933 113024083.551 2530.316 27.000 
G16 21643477.264 113737240.212 -613.539 30.000 
R12 18192571.225 97181386.684 -1127.940 46.000 
G29 22369247.796 117551226.387 -349.785 42.000 
G26 22764229.225 119626826.013 -2298.028 27.000 
> 2019 11 25 12 25 23.9920000 0 20 
G9 18493126.338 97182033.639 -2380.243 49.000 
G2 19626959.611 103140380.779 -640.122 45.000 
G7 18901449.785 99327794.562 1051.073 48.000 
R18 20010358.210 106816553.166 -4409.093 47.000 
G5 20677054.305 108658693.396 2674.660 43.000 
R19 18828944.157 100722114.601 -1348.398 37.000 
G6 19703753.735 103543909.052 -3384.030 48.000 
R3 16999658.912 91000472.891 29.450 50.000 
G4 19042647.385 100069781.004 -2834.116 45.000 
G23 20585073.021 108175252.973 -3227.461 46.000 
R10 21160216.483 112875283.096 -4308.721 29.000 
R11 21006514.705 2 -4152.051 26.000 
R2 18530775.912 98883705.666 -3148.505 45.000 
G30 20372635.318 107058919.503 2794.297 47.000 
R13 18776636.073 100266110.105 2943.450 42.000 
R20 21135589.765 113021553.608 2529.504 27.000 
G16 21643590.377 113737852.610 -612.409 30.000 
R12 18192782.695 97182514.534 -1128.051 46.000 
G29 22369314.656 117551576.016 -350.055 42.000 
G26 22764675.288 119629123.861 -2298.205 27.000 
> 2019 11 25 12 25 24.9920000 0 20 
G9 18493579.494 97184414.452 -2381.165 49.000 
G2 19627081.806 103141021.644 -641.438 45.000 
G7 18901250.015 99326744.338 1049.581 48.000 
R18 20011183.884 106820962.844 -4410.209 47.000 
G5 20676545.771 108656019.260 2673.824 43.000 
R19 18829196.077 100723464.114 -1350.126 37.000 
G6 19704397.761 103547293.799 -3385.208 48.000 
R3 16999652.935 91000444.040 28.370 49.000 
G4 19043187.015 100072615.750 -2835.201 45.000 
G23 20585687.294 108178480.822 -3228.296 46.000 
R10 21161022.753 112879592.128 -4309.125 31.000 
R11 21007294.616 112256535.6862 -4152.293 26.000 
R2 18531366.218 98886854.737 -3149.597 45.000 
G30 20372103.784 107056125.794 2793.279 47.000 
R13 18776084.829 100263167.531 2941.810 42.000 
R20 21135118.522 113019024.511 2528.281 27.000 
G16 21643707.956 113738466.045 -613.844 30.000 
R12 18192994.410 97183643.588 -1129.751 46.000 
G29 22369381.805 117551926.565 -351.073 42.000 
G26 22765112.939 119631422.528 -2299.748 26.000 
> 2019 11 25 12 25 25.9920000 0 20 
G9 18494032.903 97186795.689 -2381.427 49.000 
G2 19627203.966 103141663.167 -641.799 45.000 
G7 18901050.114 99325694.694 1049.479 48.000 
R18 20012009.367 106825372.949 -4410.170 47.000 
G5 20676037.210 108653345.379 2673.798 43.000 
R19 18829448.381 100724814.659 -1351.258 37.000 
G6 19705042.093 103550679.042 -3385.202 48.000 
R3 16999647.124 91000415.710 28.272 49.000 
G4 19043726.663 100075450.846 -2835.105 45.000 
G23 20586301.516 108181708.900 -3228.025 46.000 
R10 21161832.295 112883901.793 -4309.786 31.000 
R11 21008090.084 112260688.8462 -4153.436 29.000 
R2 18531957.039 98890004.157 -3149.493 46.000 
G30 20371572.154 107053332.408 2793.279 47.000 
R13 18775533.970 100260225.559 2941.614 42.000 
R20 21134645.324 113016496.029 2528.582 27.000 
G16 21643829.165 113739080.226 -614.198 30.000 
R12 18193206.317 97184773.598 -1130.301 47.000 
G29 22369448.988 117552277.845 -351.462 43.000 
G26 22765551.873 119633721.732 -2299.129 25.000 
> 2019 11 25 12 25 26.9920000 0 19 
G9 18494486.286 97189176.847 -2381.378 49.000 
G2 19627326.039 103142304.873 -642.052 45.000 
G7 18900850.144 99324645.151 1049.299 48.000 
R18 20012835.478 106829782.992 -4410.227 47.000 
G5 20675528.728 108650671.243 2674.084 43.000 
R19 18829700.895 100726165.685 -1352.140 37.000 
G6 19705686.408 103554064.286 -3385.370 48.000 
R3 16999641.444 91000387.410 28.036 49.000 
G4 19044265.953 100078285.800 -2835.157 45.000 
G23 20586915.947 108184936.701 -3227.962 46.000 
R10 21162635.711 112888211.384 -4310.492 31.000 
R11 21008877.874 112264842.0522 -4153.491 29.000 
R2 18532547.423 98893153.411 -3149.506 46.000 
G30 20371040.202 107050538.878 2793.289 47.000 
R13 18774983.023 100257283.716 2941.542 42.000 
R20 21134175.233 113013967.773 2528.170 28.000 
G16 21643930.778 113739694.705 -615.400 29.000 
R12 18193417.962 97185904.144 -1131.142 47.000 
G29 22369516.250 117552629.332 -351.865 43.000 
> 2019 11 25 12 25 27.9920000 0 19 
G9 18494939.835 97191558.681 -2382.330 49.000 
G2 19627447.772 103142947.520 -643.239 44.000 
G7 18900650.539 99323596.462 1048.234 48.000 
R18 20013661.501 106834193.759 -4411.098 47.000 
G5 20675020.194 108647997.652 2673.143 43.000 
R19 18829953.949 100727517.938 -1352.650 37.000 
G6 19706330.984 103557450.323 -3386.309 48.000 
R3 16999636.043 91000359.916 27.083 49.000 
G4 19044805.689 100081121.373 -2835.945 45.000 
G23 20587530.090 108188165.001 -3228.517 46.000 
R10 21163444.128 112892521.764 -4310.901 31.000 
R11 21009646.731 112268996.0882 -4154.610 28.000 
R2 18533137.930 98896303.257 -3150.311 46.000 
G30 20370508.485 107047745.936 2792.641 47.000 
R13 18774432.303 100254342.781 2940.417 42.000 
R20 21133703.972 113011440.397 2526.805 27.000 
G16 21644050.103 113740310.082 -615.289 29.000 
R12 18193630.566 97187035.971 -1132.530 47.000 
G29 22369583.407 117552981.787 -352.855 43.000 
> 2019 11 25 12 25 28.9920000 0 19 
G9 18495393.296 97193941.242 -2382.953 49.000 
G2 19627569.958 103143591.139 -644.172 44.000 
G7 18900451.205 99322548.671 1047.194 48.000 
R18 20014488.223 106838605.286 -4411.996 47.000 
G5 20674511.895 108645324.590 2672.710 43.000 
R19 18830206.908 100728871.541 -1354.738 37.000 
G6 19706975.787 103560837.125 -3387.171 48.000 
R3 16999630.162 91000333.237 26.313 49.000 
G4 19045345.668 100083957.597 -2836.654 45.000 
G23 20588144.774 108191393.856 -3229.368 46.000 
R10 21164248.469 112896832.886 -4311.488 31.000 
R11 21010411.147 112273150.9942 -4155.523 27.000 
R2 18533728.358 98899453.725 -3150.818 46.000 
G30 20369977.204 107044953.637 2792.011 47.000 
R13 18773881.364 100251402.764 2939.372 41.000 
R20 21133228.061 113008913.997 2525.458 26.000 
G16 21644173.545 113740926.629 -617.343 29.000 
R12 18193843.084 97188169.081 -1133.730 47.000 
G29 22369650.896 117553335.263 -353.872 43.000 
> 2019 11 25 12 25 29.9920000 0 19 
G9 18495846.836 97196324.248 -2383.105 49.000 
G2 19627692.511 103144235.440 -644.500 44.000 
G7 18900251.749 99321501.485 1046.890 48.000 
R18 20015314.953 106843017.291 -4412.354 47.000 
G5 20674003.414 108642651.793 2672.698 43.000 
R19 18830459.997 100730226.091 -1355.081 37.000 
G6 19707620.215 103564224.480 -3387.778 48.000 
R3 16999625.058 91000307.098 25.857 50.000 
G4 19045885.325 100086794.188 -2836.661 45.000 
G23 20588759.205 108194622.926 -3229.075 46.000 
R10 21165058.884 112901144.559 -4311.102 32.000 
R11 21011172.421 112277306.2132 -4155.126 26.000 
R2 18534318.856 98902604.599 -3151.178 46.000 
G30 20369446.343 107042161.698 2791.743 47.000 
R13 18773330.627 100248463.390 2938.927 41.000 
R20 21132758.999 113006388.407 2525.616 26.000 
G16 21644285.340 113741543.926 -617.875 29.000 
R12 18194055.462 97189303.188 -1134.579 47.000 
G29 22369718.393 117553689.452 -354.319 43.000 
> 2019 11 25 12 25 30.9920000 0 19 
G9 18496300.193 97198707.398 -2383.447 49.000 
G2 19627815.160 103144880.151 -645.383 44.000 
G7 18900052.363 99320454.626 1046.379 48.000 
R18 20016141.291 106847429.471 -4412.581 47.000 
G5 20673494.705 108639978.979 2672.669 43.000 
R19 18830713.531 100731581.384 -1355.786 38.000 
G6 19708264.721 103567612.025 -3387.876 48.000 
R3 16999620.582 91000281.225 25.542 50.000 
G4 19046425.008 100089630.865 -2836.892 45.000 
G23 20589373.871 108197851.978 -3229.292 46.000 
R10 21165866.506 112905456.438 -4311.894 32.000 
R11 21011942.647 112281461.3961 -4156.137 26.000 
R2 18534909.607 98905755.566 -3151.086 45.000 
G30 20368915.045 107039369.826 2791.542 47.000 
R13 18772780.151 100245524.380 2938.538 41.000 
R20 21132288.245 113003863.190 2524.921 27.000 
G16 21644401.122 113742161.689 -618.260 29.000 
R12 18194267.927 97190438.009 -1135.476 47.000 
G29 22369785.987 117554044.076 -354.933 43.000 
> 2019 11 25 12 25 31.9920000 0 19 
G9 18496753.671 97201090.822 -2383.618 49.000 
G2 19627937.765 103145525.356 -645.321 44.000 
G7 18899853.248 99319408.193 1046.262 48.000 
R18 20016967.715 106851841.963 -4412.501 47.000 
G5 20672986.014 108637306.272 2672.765 43.000 
R19 18830967.109 100732937.510 -1356.424 37.000 
G6 19708909.367 103570999.940 -3388.031 48.000 
R3 16999616.176 91000255.719 25.458 50.000 
G4 19046964.804 100092467.738 -2836.909 45.000 
G23 20589988.590 108201081.104 -3229.101 46.000 
R10 21166669.608 112909768.673 -4312.603 32.000 
R11 21012723.388 112285617.426 -4156.398 27.000 
R2 18535499.939 98908906.794 -3151.410 45.000 
G30 20368383.659 107036578.127 2791.714 47.000 
R13 18772229.736 100242585.851 2938.326 41.000 
R20 21131810.353 113001338.485 2524.279 26.000 
G16 21644514.976 113742780.080 -618.759 28.000 
R12 18194480.462 97191573.669 -1136.080 47.000 
G29 22369853.816 117554399.247 -355.246 43.000 
> 2019 11 25 12 25 32.9920000 0 19 
G9 18497207.395 97203474.525 -2383.838 49.000 
G2 19628060.379 103146171.115 -646.169 44.000 
G7 18899654.045 99318362.226 1045.586 48.000 
R18 20017794.428 106856254.752 -4413.180 47.000 
G5 20672476.860 108634633.657 2672.532 43.000 
R19 18831221.027 100734294.498 -1357.574 37.000 
G6 19709554.266 103574388.217 -3388.602 48.000 
R3 16999612.023 91000230.581 24.738 50.000 
G4 19047504.670 100095304.832 -2837.260 45.000 
G23 20590602.995 108204310.322 -3229.462 46.000 
R10 21167480.337 112914081.203 -4312.608 32.000 
R11 21013500.533 112289773.808 -4156.724 26.000 
R2 18536090.254 98912058.269 -3151.666 45.000 
G30 20367852.536 107033786.648 2791.210 47.000 
R13 18771679.443 100239647.798 2937.754 41.000 
R20 21131340.864 112998814.330 2523.636 27.000 
G16 21644628.577 113743399.000 -618.920 28.000 
R12 18194692.988 97192710.192 -1137.057 47.000 
G29 22369921.933 117554755.030 -356.382 43.000 
> 2019 11 25 12 25 33.9920000 0 19 
G9 18497661.126 97205858.477 -2384.265 49.000 
G2 19628182.932 103146817.361 -646.804 44.000 
G7 18899455.112 99317316.678 1044.940 48.000 
R18 20018621.333 106860667.760 -4413.327 47.000 
G5 20671967.977 108631961.121 2672.277 42.000 
R19 18831474.561 100735652.259 -1357.994 37.000 
G6 19710199.104 103577776.810 -3389.055 48.000 
R3 16999607.468 91000205.754 24.302 50.000 
G4 19048044.554 100098142.092 -2837.676 45.000 
G23 20591217.853 108207539.583 -3229.632 46.000 
R10 21168292.610 112918394.036 -4313.167 31.000 
R11 21014273.011 112293930.572 -4157.433 25.000 
R2 18536680.542 98915209.954 -3152.130 45.000 
G30 20367321.299 107030995.310 2791.128 47.000 
R13 18771129.055 100236710.217 2936.967 41.000 
R20 21130867.064 112996290.657 2523.258 28.000 
G16 21644742.728 113744018.586 -619.867 28.000 
R12 18194905.375 97193847.516 -1138.189 46.000 
G29 22369989.613 117555111.303 -356.742 43.000 
> 2019 11 25 12 25 34.9920000 0 19 
G9 18498115.041 97208242.606 -2384.320 50.000 
G2 19628305.799 103147464.046 -646.987 44.000 
G7 18899256.075 99316271.468 1044.829 48.000 
R18 20019447.828 106865080.985 -4413.615 47.000 
G5 20671459.146 108629288.592 2672.363 42.000 
R19 18831728.488 100737010.830 -1359.537 37.000 
G6 19710843.566 103581165.668 -3389.129 48.000 
R3 16999603.158 91000181.235 24.116 50.000 
G4 19048584.804 100100979.475 -2837.695 45.000 
G23 20591832.371 108210768.829 -3229.439 46.000 
R10 21169094.656 112922707.215 -4313.522 30.000 
R11 21015050.060 3 -4156.739 24.000 
R2 18537270.840 98918361.758 -3151.929 45.000 
G30 20366790.097 107028204.106 2790.861 47.000 
R13 18770578.884 100233773.020 2936.418 41.000 
R20 21130396.501 112993767.441 2522.812 28.000 
G16 21644860.447 113744638.661 -620.049 28.000 
R12 18195117.630 97194985.579 -1138.540 46.000 
G29 22370057.756 117555468.079 -357.348 43.000 
> 2019 11 25 12 25 35.9920000 0 19 
G9 18498568.869 97210626.990 -2384.589 50.000 
G2 19628428.343 103148111.217 -647.341 43.000 
G7 18899057.282 99315226.677 1044.473 48.000 
R18 20020274.401 106869494.454 -4413.682 46.000 
G5 20670950.716 108626616.152 2672.443 42.000 
R19 18831982.746 100738370.175 -1359.828 37.000 
G6 19711488.247 103584554.860 -3389.486 48.000 
R3 16999599.380 91000157.073 23.833 50.000 
G4 19049124.792 100103817.029 -2837.751 45.000 
G23 20592447.107 108213998.140 -3229.390 46.000 
R10 21169903.998 112927020.618 -4313.604 30.000 
R11 21015824.361 3 -4164.988 23.000 
R2 18537861.172 98921513.705 -3152.075 45.000 
G30 20366259.436 107025413.044 2790.875 47.000 
R13 18770028.862 100230836.249 2936.520 42.000 
R20 21129923.801 112991244.760 2521.974 29.000 
G16 21644979.571 113745259.351 -621.015 28.000 
R12 18195330.305 97196124.474 -1139.462 46.000 
G29 22370125.891 117555825.377 -357.669 43.000 
> 2019 11 25 12 25 36.9920000 0 19 
G9 18499022.845 97213011.600 -2384.772 50.000 
G2 19628551.193 103148758.899 -647.911 43.000 
G7 18898858.376 99314182.298 1044.178 48.000 
R18 20021100.904 106873908.201 -4413.884 47.000 
G5 20670442.295 108623943.770 2672.309 43.000 
R19 18832236.656 100739730.356 -1360.690 37.000 
G6 19712133.347 103587944.352 -3389.771 48.000 
R3 16999594.904 91000133.242 23.623 50.000 
G4 19049664.745 100106654.767 -2837.936 45.000 
G23 20593061.765 108217227.505 -3229.612 46.000 
R10 21170713.845 112931334.476 -4315.389 30.000 
R11 21016605.485 3 -4158.893 24.000 
R2 18538451.495 98924665.813 -3152.375 45.000 
G30 20365728.609 107022622.139 2790.781 47.000 
R13 18769479.076 100227899.945 2936.087 42.000 
R20 21129446.259 112988722.526 2520.956 29.000 
G16 21645100.937 113745880.601 -621.546 28.000 
R12 18195542.883 97197264.165 -1140.066 46.000 
G29 22370193.868 117556183.215 -358.222 43.000 
> 2019 11 25 12 25 37.9920000 0 19 
G9 18499476.813 97215396.411 -2384.833 50.000 
G2 19628674.348 103149406.988 -648.159 43.000 
G7 18898659.801 99313138.274 1044.080 48.000 
R18 20021927.818 106878322.187 -4413.772 47.000 
G5 20669934.023 108621271.440 2672.456 43.000 
R19 18832491.220 100741091.241 -1360.839 38.000 
G6 19712778.481 103591334.113 -3389.653 48.000 
R3 16999590.472 91000109.660 23.615 50.000 
G4 19050204.769 100109492.618 -2837.703 45.000 
G23 20593676.091 108220456.864 -3229.219 46.000 
R10 21171517.410 112935648.417 -4313.424 30.000 
R11 21017383.643 3 -4158.239 23.000 
R2 18539041.775 98927818.037 -3152.081 45.000 
G30 20365197.555 107019831.354 2790.914 47.000 
R13 18768929.289 100224964.053 2935.852 42.000 
R20 21128982.528 112986200.723 2521.588 29.000 
G16 21645226.605 113746502.391 -621.965 28.000 
R12 18195756.134 97198404.615 -1140.516 46.000 
G29 22370262.718 117556541.509 -358.380 43.000 
> 2019 11 25 12 25 38.9920000 0 19 
G9 18499930.658 97217781.396 -2385.345 50.000 
G2 19628797.799 103150055.538 -649.039 43.000 
G7 18898461.427 99312094.612 1043.247 48.000 
R18 20022754.557 106882736.402 -4414.590 47.000 
G5 20669425.297 108618599.081 2672.002 43.000 
R19 18832745.914 100742452.937 -1362.255 37.000 
G6 19713423.782 103594724.146 -3390.379 48.000 
R3 16999585.882 91000086.329 23.007 50.000 
G4 19050744.731 100112330.582 -2838.344 45.000 
G23 20594290.723 108223686.215 -3229.668 46.000 
R10 21172319.160 112939756.2663 -4314.552 29.000 
R11 21018160.902 3 -4155.097 23.000 
R2 18539631.915 98930970.396 -3152.643 44.000 
G30 20364666.536 107017040.670 2790.352 47.000 
R13 18768379.677 100222028.543 2935.029 42.000 
R20 21128507.097 112983679.375 2520.618 32.000 
G16 21645346.471 113747124.672 -622.439 28.000 
R12 18195969.375 97199545.816 -1141.855 46.000 
G29 22370330.695 117556900.291 -359.252 42.000 
> 2019 11 25 12 25 39.9920000 0 19 
G9 18500384.215 97220167.096 -2386.163 49.000 
G2 19628921.155 103150705.062 -650.253 43.000 
G7 18898263.123 99311051.861 1042.103 48.000 
R18 20023581.453 106887151.426 -4416.013 45.000 
G5 20668916.980 108615927.326 2671.197 43.000 
R19 18833000.417 100743815.939 -1363.912 37.000 
G6 19714069.483 103598114.999 -3391.697 49.000 
R3 16999581.537 91000063.863 21.792 50.000 
G4 19051284.736 100115169.207 -2839.197 45.000 
G23 20594905.529 108226916.091 -3230.067 46.000 
R10 21173129.679 112944071.3762 -4316.044 33.000 
R11 21018941.895 3 -4154.563 23.000 
R2 18540222.605 98934123.475 -3153.546 45.000 
G30 20364135.474 107014250.640 2789.352 47.000 
R13 18767830.641 100219093.976 2933.853 42.000 
R20 21128033.437 112981056.8603 2518.272 32.000 
G16 21645464.643 113747748.040 -624.389 28.000 
R12 18196183.001 97200688.324 -1143.459 46.000 
G29 22370399.309 117557260.094 -360.243 42.000 
> 2019 11 25 12 25 40.9920000 0 19 
G9 18500838.078 97222553.385 -2386.768 50.000 
G2 19629045.435 103151355.406 -650.337 44.000 
G7 18898064.775 99310009.844 1041.797 47.000 
R18 20024408.584 106891566.924 -4415.896 46.000 
G5 20668408.717 108613255.935 2671.398 44.000 
R19 18833255.618 100745180.100 -1364.732 37.000 
G6 19714714.836 103601506.477 -3391.597 48.000 
R3 16999577.602 91000042.079 21.563 50.000 
G4 19051824.672 100118008.347 -2839.155 44.000 
G23 20595519.812 108230146.343 -3229.711 45.000 
R10 21173929.361 112948387.0152 -4315.269 28.000 
R11 21019728.167 3 -4162.153 23.000 
R2 18540812.719 98937277.045 -3153.131 43.000 
G30 20363604.917 107011461.021 2789.554 47.000 
R13 18767281.369 100216160.204 2933.632 42.000 
R20 21127565.544 112978537.5252 2518.159 31.000 
G16 21645588.523 113748335.2463 -626.936 26.000 
R12 18196397.028 97201831.955 -1143.619 46.000 
G29 22370468.011 117557620.723 -360.656 43.000 
> 2019 11 25 12 25 41.9920000 0 19 
G9 18501292.011 97224939.970 -2386.646 49.000 
G2 19629169.340 103152006.285 -651.033 44.000 
G7 18897866.950 99308968.278 1041.278 48.000 
R18 20025235.533 106895982.769 -4416.122 46.000 
G5 20667900.610 108610584.693 2671.163 44.000 
R19 18833510.539 100746545.109 -1365.978 37.000 
G6 19715360.337 103604898.334 -3392.333 48.000 
R3 16999573.833 91000020.727 21.105 50.000 
G4 19052365.140 100120847.695 -2839.390 45.000 
G23 20596135.028 108233376.733 -3230.496 46.000 
R10 21174729.454 112952703.2092 -4316.531 28.000 
R11 21020516.768 3 -4152.271 22.000 
R2 18541403.749 98940430.989 -3153.986 45.000 
G30 20363074.195 107008671.759 2788.958 47.000 
R13 18766732.376 100213226.910 2933.188 42.000 
R20 21127094.981 112976018.4802 2518.091 30.000 
G16 21645706.983 3 -624.553 27.000 
R12 18196611.413 97202976.474 -1144.905 46.000 
G29 22370537.411 117557981.971 -361.525 44.000 
> 2019 11 25 12 25 42.9920000 0 19 
G9 18501746.432 97227326.997 -2387.018 49.000 
G2 19629293.665 103152657.894 -651.910 44.000 
G7 18897669.126 99307927.349 1040.800 48.000 
R18 20026062.865 106900399.114 -4416.387 47.000 
G5 20667392.180 108607913.711 2671.349 44.000 
R19 18833765.417 100747911.119 -1365.866 36.000 
G6 19716005.751 103608290.725 -3392.537 48.000 
R3 16999570.456 90999999.923 20.829 50.000 
G4 19052905.757 100123687.438 -2839.779 45.000 
G23 20596749.825 108236607.359 -3230.467 46.000 
R10 21175539.065 112957019.9092 -4316.973 28.000 
R11 21021284.691 3 -4154.840 21.000 
R2 18541994.343 98943585.268 -3154.163 45.000 
G30 20362543.473 107005882.781 2788.969 47.000 
R13 18766183.454 100210294.317 2932.557 42.000 
R20 21126619.428 112973500.2472 2517.938 30.000 
G16 21645828.568 113749583.2742 -625.514 27.000 
R12 18196825.422 97204122.012 -1145.745 46.000 
G29 22370606.636 117558343.926 -362.044 44.000 
> 2019 11 25 12 25 43.9920000 0 19 
G9 18502200.015 97229714.184 -2387.134 49.000 
G2 19629418.093 103153309.882 -652.150 44.000 
G7 18897470.944 99306886.739 1040.673 48.000 
R18 20026889.682 106904815.680 -4416.770 46.000 
G5 20666884.135 108605242.737 2671.283 44.000 
R19 18834020.888 100749277.868 -1366.840 37.000 
G6 19716651.339 103611683.341 -3392.463 48.000 
R3 16999567.490 90999979.344 20.639 50.000 
G4 19053446.199 100126527.270 -2839.895 45.000 
G23 20597364.588 108239837.948 -3230.394 46.000 
R10 21176347.743 112961336.7622 -4317.231 30.000 
R11 21022059.891 3 -4156.681 21.000 
R2 18542585.522 98946739.608 -3154.211 45.000 
G30 20362012.559 107003093.894 2788.953 47.000 
R13 18765634.775 100207362.079 2931.874 42.000 
R20 21126152.757 3 2516.445 30.000 
G16 21645932.632 113750209.4722 -625.878 27.000 
R12 18197039.929 97205268.259 -1146.497 46.000 
G29 22370675.215 117558706.341 -362.645 43.000 
> 2019 11 25 12 25 44.9920000 0 19 
G9 18502654.454 97232101.626 -2387.439 49.000 
G2 19629542.304 103153962.404 -652.825 44.000 
G7 18897272.832 99305846.586 1039.957 48.000 
R18 20027717.032 106909232.492 -4416.664 46.000 
G5 20666375.618 108602571.875 2670.611 44.000 
R19 18834276.586 100750645.418 -1367.650 37.000 
G6 19717297.311 103615076.301 -3392.864 48.000 
R3 16999564.724 90999959.106 20.106 50.000 
G4 19053986.815 100129367.285 -2840.092 45.000 
G23 20597978.931 108243068.602 -3231.020 45.000 
R10 21177162.704 112965653.9202 -4317.272 29.000 
R11 21022831.400 3 -4168.447 23.000 
R2 18543176.543 98949894.129 -3154.602 45.000 
G30 20361482.386 107000305.181 2788.719 48.000 
R13 18765085.870 100204430.291 2931.980 42.000 
R20 21125683.965 112968493.0882 2516.886 31.000 
G16 21646048.231 3 -625.919 31.000 
R12 18197254.802 97206415.364 -1147.548 47.000 
G29 22370744.126 117559069.300 -363.547 41.000 
> 2019 11 25 12 25 45.9920000 0 19 
G9 18503108.666 97234489.546 -2388.074 49.000 
G2 19629666.515 103154615.616 -653.647 44.000 
G7 18897075.042 99304807.064 1039.062 48.000 
R18 20028544.251 106913649.800 -4417.717 46.000 
G5 20665867.302 108599901.270 2670.512 44.000 
R19 18834532.755 100752014.030 -1369.625 38.000 
G6 19717943.170 103618469.802 -3393.676 48.000 
R3 16999561.225 90999939.433 19.375 50.000 
G4 19054527.502 100132207.706 -2840.623 45.000 
G23 20598593.519 108246299.567 -3231.264 46.000 
R10 21177959.419 112969971.7002 -4318.369 28.000 
R11 21023605.509 3 -4157.400 23.000 
R2 18543767.713 98953049.005 -3154.968 45.000 
G30 20360952.196 106997516.853 2788.182 47.000 
R13 18764537.340 100201499.243 2930.680 42.000 
R20 21125218.716 112965976.3742 2519.507 31.000 
G16 21646182.013 113751453.8512 -628.370 30.000 
R12 18197469.719 97207563.476 -1148.738 46.000 
G29 22370813.525 117559433.026 -364.409 43.000 
> 2019 11 25 12 25 46.9920000 0 19 
G9 18503562.537 97236877.751 -2387.750 48.000 
G2 19629791.135 103155269.389 -653.500 44.000 
G7 18896877.366 99303767.998 1039.254 48.000 
R18 20029371.313 106918067.418 -4417.229 46.000 
G5 20665358.925 108597230.822 2670.626 44.000 
R19 18834789.361 100753383.452 -1369.308 38.000 
G6 19718589.011 103621863.700 -3393.711 48.000 
R3 16999557.892 90999920.189 19.511 50.000 
G4 19055067.978 100135048.362 -2840.407 45.000 
G23 20599208.098 108249530.603 -3230.472 43.000 
R10 21178777.259 112974289.2371 -4318.570 29.000 
R11 21024380.561 3 -4159.528 22.000 
R2 18544358.952 98956204.127 -3154.944 45.000 
G30 20360421.622 106994728.742 2788.217 47.000 
R13 18763988.818 100198568.677 2930.427 42.000 
R20 21124754.349 112963460.6042 2514.149 25.000 
G16 21646304.016 3 -631.946 29.000 
R12 18197684.959 97208712.493 -1149.096 46.000 
G29 22370882.454 117559797.295 -364.220 42.000 
> 2019 11 25 12 25 47.9920000 0 19 
G9 18504016.827 97239265.804 -2388.245 48.000 
G2 19629915.224 103155923.256 -654.128 44.000 
G7 18896679.803 99302728.967 1038.811 48.000 
R18 20030198.392 106922484.897 -4417.815 45.000 
G5 20664850.172 108594560.021 2670.887 43.000 
R19 18835045.774 100754753.338 -1370.449 38.000 
G6 19719234.678 103625257.506 -3394.008 48.000 
R3 16999554.455 90999900.888 19.156 50.000 
G4 19055608.237 100137888.747 -2840.189 45.000 
G23 20599822.878 108252761.285 -3230.603 45.000 
R10 21179591.774 112978607.196 -4317.858 29.000 
R11 21025158.526 3 -4158.598 22.000 
R2 18544950.297 98959359.061 -3155.060 46.000 
G30 20359891.101 106991940.410 2788.183 47.000 
R13 18763440.061 100195638.114 2930.298 42.000 
R20 21124280.226 112960944.5082 2515.545 27.000 
G16 21646423.358 113752722.2842 -628.080 29.000 
R12 18197899.815 97209861.850 -1149.867 46.000 
G29 22370952.298 117560161.726 -364.644 43.000 
> 2019 11 25 12 25 48.9920000 0 19 
G9 18504471.301 97241654.472 -2388.898 49.000 
G2 19630039.958 103156577.974 -655.128 44.000 
G7 18896482.468 99301690.690 1038.094 48.000 
R18 20031025.532 106926903.028 -4418.406 45.000 
G5 20664342.039 108591889.670 2670.078 44.000 
R19 18835302.319 100756124.353 -1371.877 38.000 
G6 19719880.772 103628651.986 -3394.849 48.000 
R3 16999550.223 90999882.284 18.310 50.000 
G4 19056148.941 100140729.738 -2841.210 45.000 
G23 20600437.501 108255992.388 -3230.972 45.000 
R10 21180404.753 112982925.892 -4319.627 30.000 
R11 21025940.069 3 -4165.464 21.000 
R2 18545542.086 98962514.554 -3155.713 46.000 
G30 20359360.771 106989152.576 2787.628 47.000 
R13 18762891.296 100192708.420 2929.135 41.000 
R20 21123811.897 112958429.4302 2514.920 30.000 
G16 21646551.286 113753351.6782 -628.951 29.000 
R12 18198114.845 97211012.401 -1151.063 46.000 
G29 22371022.500 117560527.053 -365.444 44.000 
> 2019 11 25 12 25 49.9920000 0 19 
G9 18504926.237 97244043.708 -2389.301 49.000 
G2 19630164.736 103157233.498 -655.739 44.000 
G7 18896285.106 99300653.168 1037.527 48.000 
R18 20031852.969 106931321.751 -4418.711 46.000 
G5 20663834.081 108589219.727 2669.869 43.000 
R19 18835559.055 100757496.527 -1372.610 38.000 
G6 19720526.893 103632047.109 -3394.988 48.000 
R3 16999546.637 90999864.343 17.862 50.000 
G4 19056689.793 100143571.189 -2841.517 45.000 
G23 20601052.874 108259223.866 -3231.241 46.000 
R10 21181210.639 112987245.179 -4319.428 29.000 
R11 21026715.592 3 -4176.114 21.000 
R2 18546134.573 98965670.602 -3156.140 47.000 
G30 20358830.651 106986365.243 2787.378 48.000 
R13 18762342.495 100189779.470 2928.940 41.000 
R20 21123338.447 112955915.2142 2513.708 29.000 
G16 21646682.163 113753982.0052 -630.868 31.000 
R12 18198330.547 97212164.098 -1151.948 46.000 
G29 22371092.511 117560893.227 -366.037 44.000 
> 2019 11 25 12 25 50.9920000 0 19 
G9 18505381.050 97246433.260 -2389.795 49.000 
G2 19630289.199 103157889.604 -656.601 43.000 
G7 18896088.023 99299616.189 1036.453 48.000 
R18 20032680.764 106935740.900 -4419.802 46.000 
G5 20663325.905 108586549.902 2669.538 43.000 
R19 18835815.765 100758869.583 -1373.668 38.000 
G6 19721172.944 103635442.703 -3396.154 48.000 
R3 16999542.920 90999846.834 17.115 50.000 
G4 19057230.383 100146412.905 -2842.034 45.000 
G23 20601668.597 108262455.516 -3231.900 46.000 
R10 21182021.786 112991513.3503 -4320.069 29.000 
R11 21027492.371 3 -4160.025 20.000 
R2 18546726.956 98968826.992 -3156.830 46.000 
G30 20358300.522 106983578.221 2786.677 47.000 
R13 18761793.860 100186851.112 2928.131 41.000 
R20 21122871.732 3 2507.479 28.000 
G16 21646796.208 113754612.8822 -631.330 31.000 
R12 18198546.624 97213316.722 -1153.199 46.000 
G29 22371161.771 117561260.010 -367.161 43.000 
> 2019 11 25 12 25 51.9920000 0 19 
G9 18505835.629 97248823.201 -2389.813 48.000 
G2 19630414.021 103158546.350 -657.056 44.000 
G7 18895890.626 99298579.816 1036.110 48.000 
R18 20033509.231 106940160.447 -4419.588 46.000 
G5 20662818.243 108583880.273 2669.649 44.000 
R19 18836072.667 100760243.603 -1374.687 38.000 
G6 19721819.169 103638838.796 -3396.288 48.000 
R3 16999539.666 90999829.781 16.852 50.000 
G4 19057770.974 100149254.963 -2842.085 45.000 
G23 20602283.429 108265687.357 -3231.262 46.000 
R10 21182831.232 112995833.5542 -4320.338 28.000 
R11 21028274.987 3 -4160.025 18.000 
R2 18547318.553 98971983.683 -3156.549 44.000 
G30 20357770.009 106980791.570 2786.396 47.000 
R13 18761245.347 100183923.446 2927.557 41.000 
R20 21122403.865 112950953.4952 2512.756 29.000 
G16 21646912.767 113755244.5292 -632.250 30.000 
R12 18198763.583 97214470.330 -1153.801 48.000 
G29 22371231.842 117561627.403 -367.925 44.000 
> 2019 11 25 12 25 52.9920000 0 20 
G9 18506289.675 97251213.387 -2390.240 48.000 
G2 19630539.706 103159203.582 -656.961 45.000 
G7 18895694.093 99297544.418 1034.700 49.000 
R18 20034338.098 106944580.576 -4419.584 44.000 
G5 20662310.398 108581210.365 2670.161 45.000 
R19 18836329.543 100761618.136 -1374.067 39.000 
G6 19722464.905 103642235.875 -3397.955 48.000 
R3 16999535.783 90999812.831 17.174 49.000 
G4 19058311.285 100152097.138 -2842.234 46.000 
G23 20602898.087 108268919.260 -3232.058 45.000 
R10 21183645.259 3 -4320.121 28.000 
R11 21029060.203 3 -4164.161 22.000 
R2 18547910.194 98975140.756 -3157.581 47.000 
G30 20357239.313 106978005.882 2784.958 46.000 
R13 18760697.184 100180996.906 2925.597 41.000 
R20 21121931.889 112948429.1202 2512.685 33.000 
G16 21647032.729 3 -627.813 30.000 
R12 18198980.088 97215624.630 -1154.562 48.000 
G29 22371301.128 117561994.547 -366.803 43.000 
G26 22777401.644 3 -2311.320 29.000 
> 2019 11 25 12 25 53.9920000 0 20 
G9 18506744.837 97253603.662 -2390.344 48.000 
G2 19630665.060 103159861.068 -657.562 45.000 
G7 18895496.966 99296510.213 1033.822 49.000 
R18 20035166.530 106949001.670 -4422.771 46.000 
G5 20661802.431 108578539.363 2669.702 46.000 
R19 18836586.463 100762992.629 -1375.442 38.000 
G6 19723110.930 103645634.149 -3398.753 46.000 
R3 16999532.389 90999795.629 16.745 49.000 
G4 19058852.049 100154939.234 -2842.166 45.000 
G23 20603512.936 108272150.978 -3232.474 45.000 
R10 21184459.983 3 -4319.406 27.000 
R11 21029845.690 3 -4164.270 29.000 
R2 18548502.585 98978297.958 -3157.892 48.000 
G30 20356708.992 106975221.694 2783.376 45.000 
R13 18760148.976 100178072.035 2924.357 43.000 
R20 21121455.446 3 2511.669 28.000 
G16 21647144.201 2 -630.973 26.000 
R12 18199196.270 97216779.300 -1154.778 47.000 
G29 22371370.693 117562360.542 -366.621 43.000 
G26 22777877.634 2 -2316.342 29.000 
> 2019 11 25 12 25 54.9920000 0 19 
G9 18507199.407 97255994.133 -2390.216 50.000 
G2 19630790.518 103160519.013 -657.753 46.000 
G7 18895300.364 99295476.489 1034.069 50.000 
R18 20035994.909 106953422.954 -4420.284 46.000 
G5 20661294.246 108575868.405 2670.991 46.000 
R19 18836843.496 100764368.021 -1375.221 38.000 
G6 19723757.617 103649032.935 -3399.185 46.000 
R3 16999529.361 90999778.781 17.319 49.000 
G4 19059392.718 100157781.528 -2841.635 44.000 
G23 20604127.419 108275382.747 -3231.576 44.000 
R10 21185272.273 3 -4321.714 26.000 
R11 21030640.931 2 -4163.128 28.000 
R2 18549094.113 98981455.377 -3157.031 45.000 
G30 20356179.448 106972437.695 2784.277 46.000 
R13 18759601.354 100175147.668 2924.618 43.000 
R20 21120975.975 3 2519.052 17.000 
G16 21647263.063 3 -633.734 26.000 
R12 18199412.661 97217934.785 -1155.470 47.000 
G29 22371440.023 117562727.035 -365.858 40.000 
> 2019 11 25 12 25 55.9920000 0 19 
G9 18507654.351 97258384.604 -2390.887 50.000 
G2 19630915.994 103161177.275 -658.402 46.000 
G7 18895103.560 99294442.787 1033.394 50.000 
R18 20036823.507 106957844.241 -4421.798 47.000 
G5 20660785.807 108573197.404 2671.626 44.000 
R19 18837101.000 100765743.999 -1376.034 38.000 
G6 19724403.947 103652431.546 -3398.165 46.000 
R3 16999525.967 90999762.086 16.151 50.000 
G4 19059933.640 100160623.742 -2842.264 45.000 
G23 20604742.252 108278614.261 -3232.027 45.000 
R10 21186081.414 2 -4321.531 26.000 
R11 21031435.579 3 -4166.780 27.000 
R2 18549686.225 98984612.638 -3157.819 47.000 
G30 20355650.052 106969653.440 2783.953 47.000 
R13 18759053.487 100172223.288 2924.176 41.000 
R20 21120507.917 3 2506.940 20.000 
G16 21647396.583 3 -634.029 32.000 
R12 18199628.791 97219090.913 -1155.948 46.000 
G29 22371509.658 117563094.050 -368.156 41.000 
> 2019 11 25 12 25 56.9920000 0 19 
G9 18508109.715 97260775.797 -2391.235 49.000 
G2 19631041.941 103161836.534 -659.956 47.000 
G7 18894906.643 99293409.953 1032.122 49.000 
R18 20037651.720 106962266.345 -4423.506 45.000 
G5 20660277.762 108570527.075 2669.029 47.000 
R19 18837358.391 100767121.280 -1377.892 38.000 
G6 19725050.862 103655830.948 -3399.888 46.000 
R3 16999522.765 90999746.162 15.567 49.000 
G4 19060474.789 100163466.608 -2843.275 44.000 
G23 20605357.381 108281846.403 -3232.142 45.000 
R10 21186887.727 3 -4318.571 25.000 
R11 21032229.415 2 -4167.109 25.000 
R2 18550278.049 98987770.546 -3158.765 48.000 
G30 20355119.949 106966869.852 2782.612 45.000 
