$GPRMC,122438.00,A,5026.1476408,N,00326.4283946,E,0.08,0.00,251119,0.0,E,A*34
$GPGGA,122438.00,5026.1476408,N,00326.4283946,E,1,13,1.0,6.685,M,44.988,M,0.0,*43
$GPRMC,122439.00,A,5026.1475980,N,00326.4283929,E,0.03,0.00,251119,0.0,E,A*39
$GPGGA,122439.00,5026.1475980,N,00326.4283929,E,1,13,1.0,7.232,M,44.988,M,0.0,*4C
$GPRMC,122440.00,A,5026.1475308,N,00326.4284233,E,0.08,0.00,251119,0.0,E,A*31
$GPGGA,122440.00,5026.1475308,N,00326.4284233,E,1,13,1.0,7.452,M,44.988,M,0.0,*4F
$GPRMC,122441.00,A,5026.1476083,N,00326.4283770,E,0.08,0.00,251119,0.0,E,A*36
$GPGGA,122441.00,5026.1476083,N,00326.4283770,E,1,13,1.0,7.646,M,44.988,M,0.0,*4F
$GPRMC,122442.00,A,5026.1476623,N,00326.4281405,E,0.05,0.00,251119,0.0,E,A*37
$GPGGA,122442.00,5026.1476623,N,00326.4281405,E,1,13,1.0,8.627,M,44.988,M,0.0,*4B
$GPRMC,122443.00,A,5026.1475960,N,00326.4279341,E,0.06,0.00,251119,0.0,E,A*3E
$GPGGA,122443.00,5026.1475960,N,00326.4279341,E,1,13,1.0,10.447,M,44.988,M,0.0,*7C
$GPRMC,122444.00,A,5026.1476683,N,00326.4277931,E,0.06,0.00,251119,0.0,E,A*3B
$GPGGA,122444.00,5026.1476683,N,00326.4277931,E,1,13,1.0,10.359,M,44.988,M,0.0,*71
$GPRMC,122445.00,A,5026.1477632,N,00326.4280887,E,0.04,0.00,251119,0.0,E,A*37
$GPGGA,122445.00,5026.1477632,N,00326.4280887,E,1,13,1.0,10.052,M,44.988,M,0.0,*77
$GPRMC,122446.00,A,5026.1477195,N,00326.4282140,E,0.10,0.00,251119,0.0,E,A*3B
$GPGGA,122446.00,5026.1477195,N,00326.4282140,E,1,13,1.0,10.167,M,44.988,M,0.0,*79
$GPRMC,122447.00,A,5026.1477497,N,00326.4282167,E,0.04,0.00,251119,0.0,E,A*3D
$GPGGA,122447.00,5026.1477497,N,00326.4282167,E,1,13,1.0,10.458,M,44.988,M,0.0,*73
$GPRMC,122448.00,A,5026.1476618,N,00326.4282677,E,0.05,0.00,251119,0.0,E,A*31
$GPGGA,122448.00,5026.1476618,N,00326.4282677,E,1,13,1.0,10.272,M,44.988,M,0.0,*70
$GPRMC,122449.00,A,5026.1475553,N,00326.4284365,E,0.05,0.00,251119,0.0,E,A*3F
$GPGGA,122449.00,5026.1475553,N,00326.4284365,E,1,13,1.0,10.250,M,44.988,M,0.0,*7E
$GPRMC,122450.00,A,5026.1475724,N,00326.4284377,E,0.02,0.00,251119,0.0,E,A*31
$GPGGA,122450.00,5026.1475724,N,00326.4284377,E,1,13,1.0,10.260,M,44.988,M,0.0,*74
$GPRMC,122451.00,A,5026.1475855,N,00326.4286047,E,0.04,0.00,251119,0.0,E,A*3D
$GPGGA,122451.00,5026.1475855,N,00326.4286047,E,1,13,1.0,10.174,M,44.988,M,0.0,*78
$GPRMC,122452.00,A,5026.1475388,N,00326.4285273,E,0.07,0.00,251119,0.0,E,A*30
$GPGGA,122452.00,5026.1475388,N,00326.4285273,E,1,13,1.0,11.035,M,44.988,M,0.0,*73
$GPRMC,122453.00,A,5026.1475324,N,00326.4284615,E,0.08,0.00,251119,0.0,E,A*3D
$GPGGA,122453.00,5026.1475324,N,00326.4284615,E,1,13,1.0,11.352,M,44.988,M,0.0,*73
$GPRMC,122454.00,A,5026.1475035,N,00326.4284331,E,0.04,0.00,251119,0.0,E,A*36
$GPGGA,122454.00,5026.1475035,N,00326.4284331,E,1,13,1.0,11.996,M,44.988,M,0.0,*76
$GPRMC,122455.00,A,5026.1474824,N,00326.4285953,E,0.13,0.00,251119,0.0,E,A*37
$GPGGA,122455.00,5026.1474824,N,00326.4285953,E,1,13,1.0,12.192,M,44.988,M,0.0,*7E
$GPRMC,122456.00,A,5026.1474721,N,00326.4285961,E,0.06,0.00,251119,0.0,E,A*3B
$GPGGA,122456.00,5026.1474721,N,00326.4285961,E,1,13,1.0,12.011,M,44.988,M,0.0,*7C
$GPRMC,122457.00,A,5026.1474476,N,00326.4285925,E,0.03,0.00,251119,0.0,E,A*3E
$GPGGA,122457.00,5026.1474476,N,00326.4285925,E,1,13,1.0,12.056,M,44.988,M,0.0,*7F
$GPRMC,122458.00,A,5026.1474238,N,00326.4285257,E,0.04,0.00,251119,0.0,E,A*34
$GPGGA,122458.00,5026.1474238,N,00326.4285257,E,1,13,1.0,11.831,M,44.988,M,0.0,*78
$GPRMC,122459.00,A,5026.1472214,N,00326.4285502,E,0.06,0.00,251119,0.0,E,A*38
$GPGGA,122459.00,5026.1472214,N,00326.4285502,E,1,13,1.0,11.640,M,44.988,M,0.0,*7E
$GPRMC,122500.00,A,5026.1472924,N,00326.4285280,E,0.04,0.00,251119,0.0,E,A*32
$GPGGA,122500.00,5026.1472924,N,00326.4285280,E,1,13,1.0,11.576,M,44.988,M,0.0,*70
$GPRMC,122501.00,A,5026.1472825,N,00326.4285528,E,0.03,0.00,251119,0.0,E,A*31
$GPGGA,122501.00,5026.1472825,N,00326.4285528,E,1,13,1.0,11.042,M,44.988,M,0.0,*76
$GPRMC,122502.00,A,5026.1472123,N,00326.4285197,E,0.09,0.00,251119,0.0,E,A*37
$GPGGA,122502.00,5026.1472123,N,00326.4285197,E,1,13,1.0,10.160,M,44.988,M,0.0,*7A
$GPRMC,122503.00,A,5026.1471572,N,00326.4284212,E,0.10,0.00,251119,0.0,E,A*32
$GPGGA,122503.00,5026.1471572,N,00326.4284212,E,1,13,1.0,9.856,M,44.988,M,0.0,*43
$GPRMC,122504.00,A,5026.1471315,N,00326.4283629,E,0.13,0.00,251119,0.0,E,A*3A
$GPGGA,122504.00,5026.1471315,N,00326.4283629,E,1,13,1.0,10.159,M,44.988,M,0.0,*76
$GPRMC,122505.00,A,5026.1471514,N,00326.4282851,E,0.05,0.00,251119,0.0,E,A*3B
$GPGGA,122505.00,5026.1471514,N,00326.4282851,E,1,13,1.0,9.773,M,44.988,M,0.0,*46
$GPRMC,122506.00,A,5026.1471386,N,00326.4282989,E,0.07,0.00,251119,0.0,E,A*33
$GPGGA,122506.00,5026.1471386,N,00326.4282989,E,1,13,1.0,9.556,M,44.988,M,0.0,*49
$GPRMC,122507.00,A,5026.1470574,N,00326.4282502,E,0.09,0.00,251119,0.0,E,A*39
$GPGGA,122507.00,5026.1470574,N,00326.4282502,E,1,13,1.0,9.837,M,44.988,M,0.0,*47
$GPRMC,122508.00,A,5026.1469537,N,00326.4281381,E,0.05,0.00,251119,0.0,E,A*3B
$GPGGA,122508.00,5026.1469537,N,00326.4281381,E,1,13,1.0,10.071,M,44.988,M,0.0,*7B
$GPRMC,122509.00,A,5026.1467763,N,00326.4280815,E,0.06,0.00,251119,0.0,E,A*33
$GPGGA,122509.00,5026.1467763,N,00326.4280815,E,1,13,1.0,10.662,M,44.988,M,0.0,*74
$GPRMC,122510.00,A,5026.1467055,N,00326.4279338,E,0.02,0.00,251119,0.0,E,A*3F
$GPGGA,122510.00,5026.1467055,N,00326.4279338,E,1,13,1.0,10.792,M,44.988,M,0.0,*72
$GPRMC,122511.00,A,5026.1467039,N,00326.4277984,E,0.09,0.00,251119,0.0,E,A*3C
$GPGGA,122511.00,5026.1467039,N,00326.4277984,E,1,13,1.0,11.958,M,44.988,M,0.0,*73
$GPRMC,122512.00,A,5026.1467034,N,00326.4277808,E,0.06,0.00,251119,0.0,E,A*38
$GPGGA,122512.00,5026.1467034,N,00326.4277808,E,1,13,1.0,12.521,M,44.988,M,0.0,*79
$GPRMC,122513.00,A,5026.1466322,N,00326.4277407,E,0.07,0.00,251119,0.0,E,A*3E
$GPGGA,122513.00,5026.1466322,N,00326.4277407,E,1,13,1.0,12.656,M,44.988,M,0.0,*7D
$GPRMC,122514.00,A,5026.1465828,N,00326.4276855,E,0.03,0.00,251119,0.0,E,A*35
$GPGGA,122514.00,5026.1465828,N,00326.4276855,E,1,13,1.0,12.553,M,44.988,M,0.0,*74
$GPRMC,122515.00,A,5026.1466783,N,00326.4276701,E,0.02,0.00,251119,0.0,E,A*36
$GPGGA,122515.00,5026.1466783,N,00326.4276701,E,1,13,1.0,11.939,M,44.988,M,0.0,*75
$GPRMC,122516.00,A,5026.1467245,N,00326.4274917,E,0.09,0.00,251119,0.0,E,A*3B
$GPGGA,122516.00,5026.1467245,N,00326.4274917,E,1,13,1.0,12.068,M,44.988,M,0.0,*7D
$GPRMC,122517.00,A,5026.1466617,N,00326.4274417,E,0.06,0.00,251119,0.0,E,A*3A
$GPGGA,122517.00,5026.1466617,N,00326.4274417,E,1,13,1.0,11.611,M,44.988,M,0.0,*78
$GPRMC,122518.00,A,5026.1466583,N,00326.4273126,E,0.07,0.00,251119,0.0,E,A*3A
$GPGGA,122518.00,5026.1466583,N,00326.4273126,E,1,13,1.0,11.775,M,44.988,M,0.0,*7A
$GPRMC,122519.00,A,5026.1466994,N,00326.4271957,E,0.06,0.00,251119,0.0,E,A*3C
$GPGGA,122519.00,5026.1466994,N,00326.4271957,E,1,13,1.0,12.187,M,44.988,M,0.0,*75
$GPRMC,122520.00,A,5026.1467051,N,00326.4272830,E,0.02,0.00,251119,0.0,E,A*30
$GPGGA,122520.00,5026.1467051,N,00326.4272830,E,1,13,1.0,12.040,M,44.988,M,0.0,*77
$GPRMC,122521.00,A,5026.1468132,N,00326.4273021,E,0.08,0.00,251119,0.0,E,A*39
$GPGGA,122521.00,5026.1468132,N,00326.4273021,E,1,13,1.0,11.798,M,44.988,M,0.0,*75
$GPRMC,122522.00,A,5026.1469651,N,00326.4272482,E,0.10,0.00,251119,0.0,E,A*3C
$GPGGA,122522.00,5026.1469651,N,00326.4272482,E,1,13,1.0,12.380,M,44.988,M,0.0,*77
$GPRMC,122523.00,A,5026.1470290,N,00326.4276118,E,0.27,0.00,251119,0.0,E,A*3A
$GPGGA,122523.00,5026.1470290,N,00326.4276118,E,1,13,1.0,11.899,M,44.988,M,0.0,*75
$GPRMC,122524.00,A,5026.1470419,N,00326.4274864,E,0.07,0.00,251119,0.0,E,A*38
$GPGGA,122524.00,5026.1470419,N,00326.4274864,E,1,13,1.0,12.165,M,44.988,M,0.0,*7C
$GPRMC,122525.00,A,5026.1470738,N,00326.4275409,E,0.15,0.00,251119,0.0,E,A*3C
$GPGGA,122525.00,5026.1470738,N,00326.4275409,E,1,13,1.0,11.182,M,44.988,M,0.0,*71
$GPRMC,122526.00,A,5026.1470187,N,00326.4277613,E,0.08,0.00,251119,0.0,E,A*3A
$GPGGA,122526.00,5026.1470187,N,00326.4277613,E,1,13,1.0,11.059,M,44.988,M,0.0,*7C
$GPRMC,122527.00,A,5026.1471601,N,00326.4279048,E,0.14,0.00,251119,0.0,E,A*38
$GPGGA,122527.00,5026.1471601,N,00326.4279048,E,1,13,1.0,10.142,M,44.988,M,0.0,*79
$GPRMC,122528.00,A,5026.1473163,N,00326.4279480,E,0.05,0.00,251119,0.0,E,A*36
$GPGGA,122528.00,5026.1473163,N,00326.4279480,E,1,13,1.0,10.051,M,44.988,M,0.0,*74
$GPRMC,122529.00,A,5026.1474018,N,00326.4281383,E,0.08,0.00,251119,0.0,E,A*33
$GPGGA,122529.00,5026.1474018,N,00326.4281383,E,1,13,1.0,9.629,M,44.988,M,0.0,*4D
$GPRMC,122530.00,A,5026.1475102,N,00326.4280054,E,0.05,0.00,251119,0.0,E,A*35
$GPGGA,122530.00,5026.1475102,N,00326.4280054,E,1,13,1.0,9.217,M,44.988,M,0.0,*4F
$GPRMC,122531.00,A,5026.1476089,N,00326.4280405,E,0.05,0.00,251119,0.0,E,A*35
$GPGGA,122531.00,5026.1476089,N,00326.4280405,E,1,13,1.0,9.208,M,44.988,M,0.0,*41
$GPRMC,122532.00,A,5026.1475251,N,00326.4278176,E,0.06,0.00,251119,0.0,E,A*37
$GPGGA,122532.00,5026.1475251,N,00326.4278176,E,1,13,1.0,9.735,M,44.988,M,0.0,*4B
$GPRMC,122533.00,A,5026.1475180,N,00326.4273593,E,0.08,0.00,251119,0.0,E,A*33
$GPGGA,122533.00,5026.1475180,N,00326.4273593,E,1,13,1.0,10.748,M,44.988,M,0.0,*73
$GPRMC,122534.00,A,5026.1474281,N,00326.4274236,E,0.24,0.00,251119,0.0,E,A*36
$GPGGA,122534.00,5026.1474281,N,00326.4274236,E,1,13,1.0,11.290,M,44.988,M,0.0,*79
$GPRMC,122535.00,A,5026.1474846,N,00326.4276821,E,0.70,0.00,251119,0.0,E,A*39
$GPGGA,122535.00,5026.1474846,N,00326.4276821,E,1,13,1.0,11.252,M,44.988,M,0.0,*79
$GPRMC,122536.00,A,5026.1474137,N,00326.4276377,E,1.28,0.00,251119,0.0,E,A*31
$GPGGA,122536.00,5026.1474137,N,00326.4276377,E,1,13,1.0,11.249,M,44.988,M,0.0,*77
$GPRMC,122537.00,A,5026.1477995,N,00326.4277859,E,1.03,0.00,251119,0.0,E,A*3C
$GPGGA,122537.00,5026.1477995,N,00326.4277859,E,1,13,1.0,10.861,M,44.988,M,0.0,*72
$GPRMC,122538.00,A,5026.1480777,N,00326.4277414,E,1.01,0.00,251119,0.0,E,A*3E
$GPGGA,122538.00,5026.1480777,N,00326.4277414,E,1,13,1.0,11.065,M,44.988,M,0.0,*7F
$GPRMC,122539.00,A,5026.1481086,N,00326.4277957,E,1.07,0.00,251119,0.0,E,A*3B
$GPGGA,122539.00,5026.1481086,N,00326.4277957,E,1,13,1.0,10.896,M,44.988,M,0.0,*79
$GPRMC,122540.00,A,5026.1483527,N,00326.4275842,E,0.88,0.00,251119,0.0,E,A*38
$GPGGA,122540.00,5026.1483527,N,00326.4275842,E,1,13,1.0,9.682,M,44.988,M,0.0,*4F
$GPRMC,122541.00,A,5026.1486800,N,00326.4275370,E,1.41,0.00,251119,0.0,E,A*3A
$GPGGA,122541.00,5026.1486800,N,00326.4275370,E,1,13,1.0,10.050,M,44.988,M,0.0,*78
$GPRMC,122542.00,A,5026.1490007,N,00326.4274078,E,1.12,0.00,251119,0.0,E,A*3D
$GPGGA,122542.00,5026.1490007,N,00326.4274078,E,1,13,1.0,10.161,M,44.988,M,0.0,*7A
$GPRMC,122543.00,A,5026.1495602,N,00326.4273294,E,1.48,0.00,251119,0.0,E,A*32
$GPGGA,122543.00,5026.1495602,N,00326.4273294,E,1,13,1.0,10.778,M,44.988,M,0.0,*74
$GPRMC,122544.00,A,5026.1498342,N,00326.4270448,E,1.07,0.00,251119,0.0,E,A*36
$GPGGA,122544.00,5026.1498342,N,00326.4270448,E,1,13,1.0,10.586,M,44.988,M,0.0,*78
$GPRMC,122545.00,A,5026.1497864,N,00326.4268664,E,0.40,0.00,251119,0.0,E,A*30
$GPGGA,122545.00,5026.1497864,N,00326.4268664,E,1,13,1.0,10.678,M,44.988,M,0.0,*7E
$GPRMC,122546.00,A,5026.1496483,N,00326.4269111,E,1.10,0.00,251119,0.0,E,A*37
$GPGGA,122546.00,5026.1496483,N,00326.4269111,E,1,13,1.0,11.419,M,44.988,M,0.0,*79
$GPRMC,122547.00,A,5026.1492598,N,00326.4277704,E,3.49,123.63,251119,0.0,E,A*3F
$GPGGA,122547.00,5026.1492598,N,00326.4277704,E,1,13,1.0,10.872,M,44.988,M,0.0,*7A
$GPRMC,122548.00,A,5026.1485732,N,00326.4296187,E,5.51,113.94,251119,0.0,E,A*32
$GPGGA,122548.00,5026.1485732,N,00326.4296187,E,1,13,1.0,10.442,M,44.988,M,0.0,*7C
$GPRMC,122549.00,A,5026.1477443,N,00326.4322268,E,6.91,114.92,251119,0.0,E,A*39
$GPGGA,122549.00,5026.1477443,N,00326.4322268,E,1,13,1.0,10.210,M,44.988,M,0.0,*78
$GPRMC,122550.00,A,5026.1468251,N,00326.4351847,E,7.89,116.15,251119,0.0,E,A*3C
$GPGGA,122550.00,5026.1468251,N,00326.4351847,E,1,13,1.0,10.366,M,44.988,M,0.0,*78
$GPRMC,122551.00,A,5026.1461293,N,00326.4385926,E,8.44,99.64,251119,0.0,E,A*0B
$GPGGA,122551.00,5026.1461293,N,00326.4385926,E,1,13,1.0,10.716,M,44.988,M,0.0,*72
$GPRMC,122552.00,A,5026.1465789,N,00326.4414841,E,7.84,75.66,251119,0.0,E,A*0E
$GPGGA,122552.00,5026.1465789,N,00326.4414841,E,1,12,1.0,15.009,M,44.988,M,0.0,*79
$GPRMC,122553.00,A,5026.1472502,N,00326.4449538,E,8.33,52.25,251119,0.0,E,A*02
$GPGGA,122553.00,5026.1472502,N,00326.4449538,E,1,10,1.0,15.549,M,44.988,M,0.0,*77
$GPRMC,122554.00,A,5026.1496565,N,00326.4464208,E,9.02,33.61,251119,0.0,E,A*01
$GPGGA,122554.00,5026.1496565,N,00326.4464208,E,1,12,1.0,16.159,M,44.988,M,0.0,*74
$GPRMC,122555.00,A,5026.1516328,N,00326.4492532,E,9.06,30.58,251119,0.0,E,A*0C
$GPGGA,122555.00,5026.1516328,N,00326.4492532,E,1,13,1.0,11.299,M,44.988,M,0.0,*7D
$GPRMC,122556.00,A,5026.1540808,N,00326.4506056,E,8.75,17.59,251119,0.0,E,A*0F
$GPGGA,122556.00,5026.1540808,N,00326.4506056,E,1,13,1.0,11.591,M,44.988,M,0.0,*70
$GPRMC,122557.00,A,5026.1560640,N,00326.4519534,E,8.45,355.83,251119,0.0,E,A*30
$GPGGA,122557.00,5026.1560640,N,00326.4519534,E,1,12,1.0,12.350,M,44.988,M,0.0,*77
$GPRMC,122558.00,A,5026.1585750,N,00326.4505215,E,8.24,329.24,251119,0.0,E,A*3C
$GPGGA,122558.00,5026.1585750,N,00326.4505215,E,1,10,1.0,10.780,M,44.988,M,0.0,*73
$GPRMC,122559.00,A,5026.1605646,N,00326.4488355,E,8.18,314.69,251119,0.0,E,A*39
$GPGGA,122559.00,5026.1605646,N,00326.4488355,E,1,12,1.0,11.601,M,44.988,M,0.0,*75
$GPRMC,122600.00,A,5026.1621038,N,00326.4455254,E,9.75,303.17,251119,0.0,E,A*3A
$GPGGA,122600.00,5026.1621038,N,00326.4455254,E,1,13,1.0,16.431,M,44.988,M,0.0,*74
$GPRMC,122601.00,A,5026.1635963,N,00326.4417865,E,11.21,301.43,251119,0.0,E,A*0C
$GPGGA,122601.00,5026.1635963,N,00326.4417865,E,1,13,1.0,14.366,M,44.988,M,0.0,*7E
$GPRMC,122602.00,A,5026.1652176,N,00326.4375393,E,10.95,298.46,251119,0.0,E,A*09
$GPGGA,122602.00,5026.1652176,N,00326.4375393,E,1,13,1.0,13.322,M,44.988,M,0.0,*76
$GPRMC,122603.00,A,5026.1664886,N,00326.4329778,E,10.44,291.53,251119,0.0,E,A*02
$GPGGA,122603.00,5026.1664886,N,00326.4329778,E,1,13,1.0,13.851,M,44.988,M,0.0,*73
$GPRMC,122604.00,A,5026.1677822,N,00326.4290749,E,7.03,284.88,251119,0.0,E,A*3F
$GPGGA,122604.00,5026.1677822,N,00326.4290749,E,1,12,1.0,13.204,M,44.988,M,0.0,*72
$GPRMC,122605.00,A,5026.1662766,N,00326.4266605,E,5.23,291.23,251119,0.0,E,A*30
$GPGGA,122605.00,5026.1662766,N,00326.4266605,E,1,12,1.0,10.120,M,44.987,M,0.0,*71
$GPRMC,122606.00,A,5026.1670055,N,00326.4251381,E,3.39,308.43,251119,0.0,E,A*30
$GPGGA,122606.00,5026.1670055,N,00326.4251381,E,1,13,1.0,10.591,M,44.987,M,0.0,*74
$GPRMC,122607.00,A,5026.1672893,N,00326.4241756,E,1.74,308.43,251119,0.0,E,A*35
$GPGGA,122607.00,5026.1672893,N,00326.4241756,E,1,13,1.0,10.648,M,44.987,M,0.0,*7D
$GPRMC,122608.00,A,5026.1681719,N,00326.4241202,E,1.23,308.43,251119,0.0,E,A*3D
$GPGGA,122608.00,5026.1681719,N,00326.4241202,E,1,13,1.0,10.287,M,44.987,M,0.0,*70
$GPRMC,122609.00,A,5026.1688913,N,00326.4237252,E,0.86,308.43,251119,0.0,E,A*3B
$GPGGA,122609.00,5026.1688913,N,00326.4237252,E,1,13,1.0,11.903,M,44.987,M,0.0,*7E
$GPRMC,122610.00,A,5026.1682660,N,00326.4239314,E,0.11,308.43,251119,0.0,E,A*31
$GPGGA,122610.00,5026.1682660,N,00326.4239314,E,1,13,1.0,11.597,M,44.987,M,0.0,*7B
$GPRMC,122611.00,A,5026.1679525,N,00326.4239816,E,0.02,308.43,251119,0.0,E,A*3D
$GPGGA,122611.00,5026.1679525,N,00326.4239816,E,1,13,1.0,12.071,M,44.987,M,0.0,*7B
$GPRMC,122612.00,A,5026.1678937,N,00326.4240065,E,0.10,308.43,251119,0.0,E,A*31
$GPGGA,122612.00,5026.1678937,N,00326.4240065,E,1,13,1.0,13.170,M,44.987,M,0.0,*75
$GPRMC,122613.00,A,5026.1677288,N,00326.4239462,E,0.12,308.43,251119,0.0,E,A*3F
$GPGGA,122613.00,5026.1677288,N,00326.4239462,E,1,12,1.0,13.049,M,44.987,M,0.0,*73
$GPRMC,122614.00,A,5026.1682242,N,00326.4234977,E,0.13,308.43,251119,0.0,E,A*31
$GPGGA,122614.00,5026.1682242,N,00326.4234977,E,1,11,1.0,10.754,M,44.987,M,0.0,*77
$GPRMC,122615.00,A,5026.1680620,N,00326.4237160,E,1.29,308.43,251119,0.0,E,A*37
$GPGGA,122615.00,5026.1680620,N,00326.4237160,E,1,13,1.0,10.663,M,44.987,M,0.0,*7E
$GPRMC,122616.00,A,5026.1695054,N,00326.4223489,E,5.59,308.99,251119,0.0,E,A*36
$GPGGA,122616.00,5026.1695054,N,00326.4223489,E,1,13,1.0,7.892,M,44.987,M,0.0,*4D
$GPRMC,122617.00,A,5026.1697936,N,00326.4194369,E,9.47,286.99,251119,0.0,E,A*3A
$GPGGA,122617.00,5026.1697936,N,00326.4194369,E,1,13,1.0,12.081,M,44.987,M,0.0,*7B
$GPRMC,122618.00,A,5026.1705082,N,00326.4147554,E,10.33,264.49,251119,0.0,E,A*05
$GPGGA,122618.00,5026.1705082,N,00326.4147554,E,1,13,1.0,9.952,M,44.987,M,0.0,*43
$GPRMC,122619.00,A,5026.1696367,N,00326.4101449,E,12.39,255.35,251119,0.0,E,A*09
$GPGGA,122619.00,5026.1696367,N,00326.4101449,E,1,13,1.0,10.055,M,44.987,M,0.0,*78
$GPRMC,122620.00,A,5026.1685539,N,00326.4042833,E,15.10,253.21,251119,0.0,E,A*04
$GPGGA,122620.00,5026.1685539,N,00326.4042833,E,1,13,1.0,11.117,M,44.987,M,0.0,*7C
$GPRMC,122621.00,A,5026.1673228,N,00326.3978047,E,14.83,253.70,251119,0.0,E,A*08
$GPGGA,122621.00,5026.1673228,N,00326.3978047,E,1,12,1.0,11.140,M,44.987,M,0.0,*7C
$GPRMC,122622.00,A,5026.1659662,N,00326.3924825,E,13.61,256.58,251119,0.0,E,A*08
$GPGGA,122622.00,5026.1659662,N,00326.3924825,E,1,09,1.0,12.989,M,44.987,M,0.0,*7C
$GPRMC,122623.00,A,5026.1661312,N,00326.3861121,E,12.06,262.37,251119,0.0,E,A*03
$GPGGA,122623.00,5026.1661312,N,00326.3861121,E,1,11,1.0,16.247,M,44.987,M,0.0,*7D
$GPRMC,122624.00,A,5026.1651440,N,00326.3828464,E,8.08,270.49,251119,0.0,E,A*31
$GPGGA,122624.00,5026.1651440,N,00326.3828464,E,1,12,1.0,16.266,M,44.987,M,0.0,*70
$GPRMC,122625.00,A,5026.1655493,N,00326.3785910,E,6.57,275.51,251119,0.0,E,A*34
$GPGGA,122625.00,5026.1655493,N,00326.3785910,E,1,13,1.0,12.916,M,44.987,M,0.0,*74
$GPRMC,122626.00,A,5026.1657807,N,00326.3767283,E,5.64,279.61,251119,0.0,E,A*35
$GPGGA,122626.00,5026.1657807,N,00326.3767283,E,1,13,1.0,12.685,M,44.987,M,0.0,*7C
$GPRMC,122627.00,A,5026.1662115,N,00326.3729860,E,11.05,283.80,251119,0.0,E,A*0D
$GPGGA,122627.00,5026.1662115,N,00326.3729860,E,1,13,1.0,13.356,M,44.987,M,0.0,*76
$GPRMC,122628.00,A,5026.1674307,N,00326.3679755,E,15.20,291.65,251119,0.0,E,A*02
$GPGGA,122628.00,5026.1674307,N,00326.3679755,E,1,13,1.0,12.569,M,44.987,M,0.0,*79
$GPRMC,122629.00,A,5026.1692724,N,00326.3620839,E,15.25,299.24,251119,0.0,E,A*0F
$GPGGA,122629.00,5026.1692724,N,00326.3620839,E,1,13,1.0,12.897,M,44.987,M,0.0,*70
$GPRMC,122630.00,A,5026.1710229,N,00326.3562749,E,15.43,291.09,251119,0.0,E,A*0E
$GPGGA,122630.00,5026.1710229,N,00326.3562749,E,1,13,1.0,12.391,M,44.987,M,0.0,*7B
$GPRMC,122631.00,A,5026.1719242,N,00326.3497308,E,15.10,272.41,251119,0.0,E,A*06
$GPGGA,122631.00,5026.1719242,N,00326.3497308,E,1,13,1.0,13.117,M,44.986,M,0.0,*78
$GPRMC,122632.00,A,5026.1712869,N,00326.3433554,E,14.10,250.02,251119,0.0,E,A*0A
$GPGGA,122632.00,5026.1712869,N,00326.3433554,E,1,13,1.0,13.622,M,44.986,M,0.0,*73
$GPRMC,122633.00,A,5026.1689864,N,00326.3384904,E,13.68,226.26,251119,0.0,E,A*08
$GPGGA,122633.00,5026.1689864,N,00326.3384904,E,1,11,1.0,13.193,M,44.986,M,0.0,*71
$GPRMC,122634.00,A,5026.1660608,N,00326.3355214,E,14.10,205.76,251119,0.0,E,A*06
$GPGGA,122634.00,5026.1660608,N,00326.3355214,E,1,12,1.0,14.959,M,44.986,M,0.0,*79
$GPRMC,122635.00,A,5026.1622776,N,00326.3329605,E,15.57,181.15,251119,0.0,E,A*0E
$GPGGA,122635.00,5026.1622776,N,00326.3329605,E,1,11,1.0,14.021,M,44.986,M,0.0,*7C
$GPRMC,122636.00,A,5026.1580346,N,00326.3342060,E,16.47,158.19,251119,0.0,E,A*03
$GPGGA,122636.00,5026.1580346,N,00326.3342060,E,1,11,1.0,12.932,M,44.986,M,0.0,*76
$GPRMC,122637.00,A,5026.1528347,N,00326.3384697,E,18.07,147.16,251119,0.0,E,A*0E
$GPGGA,122637.00,5026.1528347,N,00326.3384697,E,1,12,1.0,12.530,M,44.986,M,0.0,*7D
$GPRMC,122638.00,A,5026.1481150,N,00326.3428771,E,18.23,151.54,251119,0.0,E,A*08
$GPGGA,122638.00,5026.1481150,N,00326.3428771,E,1,10,1.0,11.179,M,44.986,M,0.0,*74
$GPRMC,122639.00,A,5026.1436144,N,00326.3464232,E,20.04,161.92,251119,0.0,E,A*0D
$GPGGA,122639.00,5026.1436144,N,00326.3464232,E,1,12,1.0,15.499,M,44.986,M,0.0,*7B
$GPRMC,122640.00,A,5026.1398720,N,00326.3473893,E,21.58,169.76,251119,0.0,E,A*09
$GPGGA,122640.00,5026.1398720,N,00326.3473893,E,1,12,1.0,8.414,M,44.986,M,0.0,*4C
$GPRMC,122641.00,A,5026.1331473,N,00326.3488953,E,23.43,174.83,251119,0.0,E,A*09
$GPGGA,122641.00,5026.1331473,N,00326.3488953,E,1,13,1.0,13.367,M,44.987,M,0.0,*7B
$GPRMC,122642.00,A,5026.1266274,N,00326.3493737,E,24.82,175.68,251119,0.0,E,A*00
$GPGGA,122642.00,5026.1266274,N,00326.3493737,E,1,13,1.0,13.020,M,44.987,M,0.0,*7C
$GPRMC,122643.00,A,5026.1193176,N,00326.3509083,E,26.45,177.07,251119,0.0,E,A*01
$GPGGA,122643.00,5026.1193176,N,00326.3509083,E,1,13,1.0,14.361,M,44.987,M,0.0,*7E
$GPRMC,122644.00,A,5026.1118223,N,00326.3520909,E,27.44,175.99,251119,0.0,E,A*03
$GPGGA,122644.00,5026.1118223,N,00326.3520909,E,1,13,1.0,17.179,M,44.987,M,0.0,*71
$GPRMC,122645.00,A,5026.1045544,N,00326.3532450,E,27.58,173.99,251119,0.0,E,A*04
$GPGGA,122645.00,5026.1045544,N,00326.3532450,E,1,13,1.0,15.698,M,44.987,M,0.0,*77
$GPRMC,122646.00,A,5026.0967725,N,00326.3531585,E,28.43,174.04,251119,0.0,E,A*06
$GPGGA,122646.00,5026.0967725,N,00326.3531585,E,1,12,1.0,13.798,M,44.987,M,0.0,*75
$GPRMC,122647.00,A,5026.0880912,N,00326.3547949,E,29.06,175.82,251119,0.0,E,A*07
$GPGGA,122647.00,5026.0880912,N,00326.3547949,E,1,10,1.0,13.629,M,44.987,M,0.0,*72
$GPRMC,122648.00,A,5026.0810395,N,00326.3561318,E,30.53,173.40,251119,0.0,E,A*0E
$GPGGA,122648.00,5026.0810395,N,00326.3561318,E,1,12,1.0,17.802,M,44.987,M,0.0,*7A
$GPRMC,122649.00,A,5026.0720888,N,00326.3567197,E,26.11,174.24,251119,0.0,E,A*03
$GPGGA,122649.00,5026.0720888,N,00326.3567197,E,1,12,1.0,16.439,M,44.987,M,0.0,*76
$GPRMC,122650.00,A,5026.0653507,N,00326.3566266,E,26.09,172.36,251119,0.0,E,A*04
$GPGGA,122650.00,5026.0653507,N,00326.3566266,E,1,13,1.0,15.915,M,44.987,M,0.0,*7C
$GPRMC,122651.00,A,5026.0578007,N,00326.3579070,E,25.73,174.40,251119,0.0,E,A*08
$GPGGA,122651.00,5026.0578007,N,00326.3579070,E,1,13,1.0,16.565,M,44.987,M,0.0,*71
$GPRMC,122652.00,A,5026.0509181,N,00326.3596646,E,25.56,175.99,251119,0.0,E,A*02
$GPGGA,122652.00,5026.0509181,N,00326.3596646,E,1,13,1.0,15.444,M,44.987,M,0.0,*78
$GPRMC,122653.00,A,5026.0434771,N,00326.3600479,E,23.12,174.46,251119,0.0,E,A*02
$GPGGA,122653.00,5026.0434771,N,00326.3600479,E,1,13,1.0,18.836,M,44.987,M,0.0,*79
$GPRMC,122654.00,A,5026.0368663,N,00326.3616218,E,23.36,174.76,251119,0.0,E,A*0A
$GPGGA,122654.00,5026.0368663,N,00326.3616218,E,1,12,1.0,14.470,M,44.987,M,0.0,*77
$GPRMC,122655.00,A,5026.0309536,N,00326.3625018,E,22.37,173.47,251119,0.0,E,A*08
$GPGGA,122655.00,5026.0309536,N,00326.3625018,E,1,13,1.0,18.127,M,44.987,M,0.0,*7A
$GPRMC,122656.00,A,5026.0250015,N,00326.3636089,E,21.21,175.21,251119,0.0,E,A*0A
$GPGGA,122656.00,5026.0250015,N,00326.3636089,E,1,13,1.0,15.825,M,44.987,M,0.0,*7C
$GPRMC,122657.00,A,5026.0186510,N,00326.3635077,E,20.55,173.80,251119,0.0,E,A*0E
$GPGGA,122657.00,5026.0186510,N,00326.3635077,E,1,13,1.0,13.479,M,44.987,M,0.0,*74
$GPRMC,122658.00,A,5026.0134536,N,00326.3644893,E,20.30,174.78,251119,0.0,E,A*0B
$GPGGA,122658.00,5026.0134536,N,00326.3644893,E,1,13,1.0,11.062,M,44.987,M,0.0,*7E
$GPRMC,122659.00,A,5026.0074333,N,00326.3648542,E,20.02,174.45,251119,0.0,E,A*0E
$GPGGA,122659.00,5026.0074333,N,00326.3648542,E,1,13,1.0,13.983,M,44.987,M,0.0,*70
$GPRMC,122700.00,A,5026.0023594,N,00326.3654639,E,20.36,175.36,251119,0.0,E,A*0A
$GPGGA,122700.00,5026.0023594,N,00326.3654639,E,1,13,1.0,10.875,M,44.987,M,0.0,*7D
$GPRMC,122701.00,A,5025.9973048,N,00326.3661435,E,18.62,174.90,251119,0.0,E,A*06
$GPGGA,122701.00,5025.9973048,N,00326.3661435,E,1,13,1.0,11.734,M,44.987,M,0.0,*7D
$GPRMC,122702.00,A,5025.9922189,N,00326.3666297,E,16.74,176.09,251119,0.0,E,A*0F
$GPGGA,122702.00,5025.9922189,N,00326.3666297,E,1,13,1.0,10.670,M,44.987,M,0.0,*7F
$GPRMC,122703.00,A,5025.9881621,N,00326.3671525,E,14.75,176.57,251119,0.0,E,A*03
$GPGGA,122703.00,5025.9881621,N,00326.3671525,E,1,13,1.0,11.467,M,44.987,M,0.0,*7E
$GPRMC,122704.00,A,5025.9843610,N,00326.3674744,E,11.90,177.97,251119,0.0,E,A*0B
$GPGGA,122704.00,5025.9843610,N,00326.3674744,E,1,13,1.0,11.244,M,44.987,M,0.0,*72
$GPRMC,122705.00,A,5025.9815294,N,00326.3672581,E,10.20,185.15,251119,0.0,E,A*01
$GPGGA,122705.00,5025.9815294,N,00326.3672581,E,1,13,1.0,11.984,M,44.987,M,0.0,*72
$GPRMC,122706.00,A,5025.9785569,N,00326.3661742,E,13.12,194.18,251119,0.0,E,A*01
$GPGGA,122706.00,5025.9785569,N,00326.3661742,E,1,13,1.0,11.300,M,44.987,M,0.0,*7B
$GPRMC,122707.00,A,5025.9745298,N,00326.3641320,E,15.09,204.89,251119,0.0,E,A*09
$GPGGA,122707.00,5025.9745298,N,00326.3641320,E,1,13,1.0,11.173,M,44.987,M,0.0,*7B
$GPRMC,122708.00,A,5025.9707326,N,00326.3609509,E,15.74,207.07,251119,0.0,E,A*0A
$GPGGA,122708.00,5025.9707326,N,00326.3609509,E,1,13,1.0,11.674,M,44.987,M,0.0,*77
$GPRMC,122709.00,A,5025.9666393,N,00326.3583203,E,16.59,195.16,251119,0.0,E,A*0B
$GPGGA,122709.00,5025.9666393,N,00326.3583203,E,1,13,1.0,11.934,M,44.987,M,0.0,*79
$GPRMC,122710.00,A,5025.9620432,N,00326.3575717,E,16.71,176.74,251119,0.0,E,A*07
$GPGGA,122710.00,5025.9620432,N,00326.3575717,E,1,13,1.0,11.123,M,44.987,M,0.0,*78
$GPRMC,122711.00,A,5025.9577841,N,00326.3597296,E,16.62,154.90,251119,0.0,E,A*07
$GPGGA,122711.00,5025.9577841,N,00326.3597296,E,1,13,1.0,12.376,M,44.987,M,0.0,*71
$GPRMC,122712.00,A,5025.9535481,N,00326.3635760,E,17.39,142.33,251119,0.0,E,A*04
$GPGGA,122712.00,5025.9535481,N,00326.3635760,E,1,13,1.0,11.245,M,44.987,M,0.0,*71
$GPRMC,122713.00,A,5025.9496166,N,00326.3677986,E,17.48,148.88,251119,0.0,E,A*0D
$GPGGA,122713.00,5025.9496166,N,00326.3677986,E,1,13,1.0,11.763,M,44.987,M,0.0,*75
$GPRMC,122714.00,A,5025.9452029,N,00326.3712101,E,18.73,161.46,251119,0.0,E,A*03
$GPGGA,122714.00,5025.9452029,N,00326.3712101,E,1,13,1.0,12.377,M,44.987,M,0.0,*77
$GPRMC,122715.00,A,5025.9391476,N,00326.3732037,E,20.59,171.31,251119,0.0,E,A*00
$GPGGA,122715.00,5025.9391476,N,00326.3732037,E,1,09,1.0,10.322,M,44.987,M,0.0,*7F
$GPRMC,122716.00,A,5025.9334587,N,00326.3738023,E,22.14,175.25,251119,0.0,E,A*06
$GPGGA,122716.00,5025.9334587,N,00326.3738023,E,1,12,1.0,11.393,M,44.988,M,0.0,*7D
$GPRMC,122717.00,A,5025.9272853,N,00326.3746068,E,22.30,175.44,251119,0.0,E,A*07
$GPGGA,122717.00,5025.9272853,N,00326.3746068,E,1,12,1.0,11.351,M,44.988,M,0.0,*73
$GPRMC,122718.00,A,5025.9215133,N,00326.3755130,E,23.23,175.88,251119,0.0,E,A*0B
$GPGGA,122718.00,5025.9215133,N,00326.3755130,E,1,13,1.0,10.435,M,44.988,M,0.0,*79
$GPRMC,122719.00,A,5025.9145452,N,00326.3762391,E,24.77,175.43,251119,0.0,E,A*02
$GPGGA,122719.00,5025.9145452,N,00326.3762391,E,1,13,1.0,10.385,M,44.988,M,0.0,*7D
$GPRMC,122720.00,A,5025.9076244,N,00326.3777685,E,25.46,174.87,251119,0.0,E,A*06
$GPGGA,122720.00,5025.9076244,N,00326.3777685,E,1,13,1.0,10.478,M,44.988,M,0.0,*76
$GPRMC,122721.00,A,5025.9002863,N,00326.3784033,E,26.73,174.92,251119,0.0,E,A*0D
$GPGGA,122721.00,5025.9002863,N,00326.3784033,E,1,13,1.0,11.503,M,44.988,M,0.0,*70
$GPRMC,122722.00,A,5025.8932038,N,00326.3789753,E,28.15,174.82,251119,0.0,E,A*00
$GPGGA,122722.00,5025.8932038,N,00326.3789753,E,1,13,1.0,10.938,M,44.988,M,0.0,*77
$GPRMC,122723.00,A,5025.8848735,N,00326.3803295,E,29.55,175.56,251119,0.0,E,A*08
$GPGGA,122723.00,5025.8848735,N,00326.3803295,E,1,13,1.0,10.023,M,44.988,M,0.0,*71
$GPRMC,122724.00,A,5025.8766765,N,00326.3813386,E,29.65,175.89,251119,0.0,E,A*0A
$GPGGA,122724.00,5025.8766765,N,00326.3813386,E,1,13,1.0,10.525,M,44.988,M,0.0,*71
$GPRMC,122725.00,A,5025.8689052,N,00326.3822134,E,28.84,175.19,251119,0.0,E,A*06
$GPGGA,122725.00,5025.8689052,N,00326.3822134,E,1,13,1.0,11.741,M,44.988,M,0.0,*7B
$GPRMC,122726.00,A,5025.8608364,N,00326.3836634,E,28.22,174.72,251119,0.0,E,A*08
$GPGGA,122726.00,5025.8608364,N,00326.3836634,E,1,13,1.0,11.381,M,44.988,M,0.0,*7D
$GPRMC,122727.00,A,5025.8529336,N,00326.3844558,E,27.67,174.45,251119,0.0,E,A*08
$GPGGA,122727.00,5025.8529336,N,00326.3844558,E,1,13,1.0,11.676,M,44.988,M,0.0,*7A
$GPRMC,122728.00,A,5025.8450729,N,00326.3858321,E,28.80,173.00,251119,0.0,E,A*07
$GPGGA,122728.00,5025.8450729,N,00326.3858321,E,1,13,1.0,11.911,M,44.988,M,0.0,*7B
$GPRMC,122729.00,A,5025.8372745,N,00326.3874499,E,29.34,173.12,251119,0.0,E,A*0C
$GPGGA,122729.00,5025.8372745,N,00326.3874499,E,1,13,1.0,8.995,M,44.988,M,0.0,*49
$GPRMC,122730.00,A,5025.8290740,N,00326.3887499,E,27.74,169.58,251119,0.0,E,A*0F
$GPGGA,122730.00,5025.8290740,N,00326.3887499,E,1,13,1.0,13.303,M,44.988,M,0.0,*7A
$GPRMC,122731.00,A,5025.8213080,N,00326.3910470,E,27.80,168.85,251119,0.0,E,A*0C
$GPGGA,122731.00,5025.8213080,N,00326.3910470,E,1,13,1.0,13.010,M,44.988,M,0.0,*72
$GPRMC,122732.00,A,5025.8134806,N,00326.3921967,E,26.85,168.52,251119,0.0,E,A*08
$GPGGA,122732.00,5025.8134806,N,00326.3921967,E,1,13,1.0,16.708,M,44.988,M,0.0,*73
$GPRMC,122733.00,A,5025.8065234,N,00326.3942617,E,27.17,166.95,251119,0.0,E,A*05
$GPGGA,122733.00,5025.8065234,N,00326.3942617,E,1,13,1.0,15.396,M,44.988,M,0.0,*71
$GPRMC,122734.00,A,5025.7997626,N,00326.3962125,E,24.69,163.96,251119,0.0,E,A*06
$GPGGA,122734.00,5025.7997626,N,00326.3962125,E,1,13,1.0,16.931,M,44.988,M,0.0,*7A
$GPRMC,122735.00,A,5025.7922394,N,00326.3999768,E,24.92,165.04,251119,0.0,E,A*07
$GPGGA,122735.00,5025.7922394,N,00326.3999768,E,1,12,1.0,18.256,M,44.988,M,0.0,*77
$GPRMC,122736.00,A,5025.7864124,N,00326.4027172,E,21.98,165.40,251119,0.0,E,A*07
$GPGGA,122736.00,5025.7864124,N,00326.4027172,E,1,13,1.0,14.478,M,44.988,M,0.0,*7F
$GPRMC,122737.00,A,5025.7802462,N,00326.4047389,E,19.54,166.19,251119,0.0,E,A*05
$GPGGA,122737.00,5025.7802462,N,00326.4047389,E,1,13,1.0,15.889,M,44.988,M,0.0,*7A
$GPRMC,122738.00,A,5025.7750582,N,00326.4063310,E,18.78,160.12,251119,0.0,E,A*09
$GPGGA,122738.00,5025.7750582,N,00326.4063310,E,1,13,1.0,15.715,M,44.988,M,0.0,*7E
$GPRMC,122739.00,A,5025.7707415,N,00326.4089267,E,16.15,159.48,251119,0.0,E,A*00
$GPGGA,122739.00,5025.7707415,N,00326.4089267,E,1,12,1.0,16.017,M,44.989,M,0.0,*71
$GPRMC,122740.00,A,5025.7664254,N,00326.4104488,E,11.99,175.22,251119,0.0,E,A*0B
$GPGGA,122740.00,5025.7664254,N,00326.4104488,E,1,13,1.0,18.844,M,44.989,M,0.0,*7A
$GPRMC,122741.00,A,5025.7641317,N,00326.4107171,E,11.30,182.52,251119,0.0,E,A*07
$GPGGA,122741.00,5025.7641317,N,00326.4107171,E,1,13,1.0,13.434,M,44.989,M,0.0,*7A
$GPRMC,122742.00,A,5025.7600466,N,00326.4088800,E,11.18,206.60,251119,0.0,E,A*0D
$GPGGA,122742.00,5025.7600466,N,00326.4088800,E,1,12,1.0,14.682,M,44.989,M,0.0,*7D
$GPRMC,122743.00,A,5025.7569757,N,00326.4056409,E,13.04,227.18,251119,0.0,E,A*04
$GPGGA,122743.00,5025.7569757,N,00326.4056409,E,1,13,1.0,16.396,M,44.989,M,0.0,*74
$GPRMC,122744.00,A,5025.7552131,N,00326.4005949,E,13.99,246.56,251119,0.0,E,A*0B
$GPGGA,122744.00,5025.7552131,N,00326.4005949,E,1,13,1.0,13.512,M,44.988,M,0.0,*7C
$GPRMC,122745.00,A,5025.7549676,N,00326.3944291,E,13.37,262.01,251119,0.0,E,A*01
$GPGGA,122745.00,5025.7549676,N,00326.3944291,E,1,13,1.0,14.755,M,44.988,M,0.0,*70
$GPRMC,122746.00,A,5025.7556199,N,00326.3881590,E,13.70,286.38,251119,0.0,E,A*07
$GPGGA,122746.00,5025.7556199,N,00326.3881590,E,1,11,1.0,11.770,M,44.988,M,0.0,*75
$GPRMC,122747.00,A,5025.7565983,N,00326.3826744,E,14.11,303.88,251119,0.0,E,A*04
$GPGGA,122747.00,5025.7565983,N,00326.3826744,E,1,10,1.0,16.713,M,44.988,M,0.0,*72
$GPRMC,122748.00,A,5025.7594914,N,00326.3782950,E,17.74,330.11,251119,0.0,E,A*01
$GPGGA,122748.00,5025.7594914,N,00326.3782950,E,1,10,1.0,14.382,M,44.988,M,0.0,*79
$GPRMC,122749.00,A,5025.7639294,N,00326.3725969,E,18.95,323.00,251119,0.0,E,A*02
$GPGGA,122749.00,5025.7639294,N,00326.3725969,E,1,11,1.0,12.927,M,44.988,M,0.0,*7A
$GPRMC,122750.00,A,5025.7678871,N,00326.3694399,E,20.07,326.05,251119,0.0,E,A*00
$GPGGA,122750.00,5025.7678871,N,00326.3694399,E,1,12,1.0,11.044,M,44.988,M,0.0,*74
$GPRMC,122751.00,A,5025.7719245,N,00326.3653062,E,20.41,323.19,251119,0.0,E,A*0C
$GPGGA,122751.00,5025.7719245,N,00326.3653062,E,1,12,1.0,11.252,M,44.988,M,0.0,*77
$GPRMC,122752.00,A,5025.7783043,N,00326.3582975,E,22.35,322.81,251119,0.0,E,A*09
$GPGGA,122752.00,5025.7783043,N,00326.3582975,E,1,13,1.0,8.708,M,44.988,M,0.0,*40
$GPRMC,122753.00,A,5025.7833909,N,00326.3525898,E,24.02,323.21,251119,0.0,E,A*0D
$GPGGA,122753.00,5025.7833909,N,00326.3525898,E,1,13,1.0,9.336,M,44.988,M,0.0,*45
$GPRMC,122754.00,A,5025.7883801,N,00326.3466515,E,23.16,323.46,251119,0.0,E,A*05
$GPGGA,122754.00,5025.7883801,N,00326.3466515,E,1,13,1.0,10.883,M,44.988,M,0.0,*73
$GPRMC,122755.00,A,5025.7933871,N,00326.3410955,E,22.05,323.99,251119,0.0,E,A*01
$GPGGA,122755.00,5025.7933871,N,00326.3410955,E,1,13,1.0,11.611,M,44.988,M,0.0,*72
$GPRMC,122756.00,A,5025.7986645,N,00326.3358865,E,21.66,324.69,251119,0.0,E,A*02
$GPGGA,122756.00,5025.7986645,N,00326.3358865,E,1,13,1.0,9.741,M,44.987,M,0.0,*4D
$GPRMC,122757.00,A,5025.8034096,N,00326.3302491,E,20.87,324.75,251119,0.0,E,A*0F
$GPGGA,122757.00,5025.8034096,N,00326.3302491,E,1,13,1.0,11.057,M,44.987,M,0.0,*7A
$GPRMC,122758.00,A,5025.8079838,N,00326.3251278,E,20.30,325.18,251119,0.0,E,A*05
$GPGGA,122758.00,5025.8079838,N,00326.3251278,E,1,13,1.0,11.122,M,44.987,M,0.0,*75
$GPRMC,122759.00,A,5025.8124536,N,00326.3199376,E,19.89,324.42,251119,0.0,E,A*00
$GPGGA,122759.00,5025.8124536,N,00326.3199376,E,1,13,1.0,11.757,M,44.987,M,0.0,*72
$GPRMC,122800.00,A,5025.8161856,N,00326.3132221,E,19.22,326.34,251119,0.0,E,A*09
$GPGGA,122800.00,5025.8161856,N,00326.3132221,E,1,13,1.0,18.240,M,44.987,M,0.0,*73
$GPRMC,122801.00,A,5025.8209339,N,00326.3109549,E,15.34,322.71,251119,0.0,E,A*08
$GPGGA,122801.00,5025.8209339,N,00326.3109549,E,1,13,1.0,10.699,M,44.987,M,0.0,*74
$GPRMC,122802.00,A,5025.8238160,N,00326.3070057,E,11.81,325.14,251119,0.0,E,A*0C
$GPGGA,122802.00,5025.8238160,N,00326.3070057,E,1,13,1.0,13.048,M,44.987,M,0.0,*77
$GPRMC,122803.00,A,5025.8263296,N,00326.3046920,E,8.67,326.22,251119,0.0,E,A*33
$GPGGA,122803.00,5025.8263296,N,00326.3046920,E,1,13,1.0,13.389,M,44.987,M,0.0,*70
$GPRMC,122804.00,A,5025.8279529,N,00326.3029271,E,5.93,325.18,251119,0.0,E,A*36
$GPGGA,122804.00,5025.8279529,N,00326.3029271,E,1,13,1.0,13.315,M,44.987,M,0.0,*7C
$GPRMC,122805.00,A,5025.8289448,N,00326.3013860,E,4.18,325.56,251119,0.0,E,A*35
$GPGGA,122805.00,5025.8289448,N,00326.3013860,E,1,13,1.0,14.558,M,44.987,M,0.0,*7F
$GPRMC,122806.00,A,5025.8295248,N,00326.3007529,E,1.86,325.56,251119,0.0,E,A*3A
$GPGGA,122806.00,5025.8295248,N,00326.3007529,E,1,13,1.0,13.812,M,44.987,M,0.0,*76
$GPRMC,122807.00,A,5025.8296488,N,00326.2999205,E,0.48,325.56,251119,0.0,E,A*37
$GPGGA,122807.00,5025.8296488,N,00326.2999205,E,1,13,1.0,14.910,M,44.987,M,0.0,*7C
$GPRMC,122808.00,A,5025.8296314,N,00326.3000171,E,0.15,325.56,251119,0.0,E,A*3A
$GPGGA,122808.00,5025.8296314,N,00326.3000171,E,1,12,1.0,15.321,M,44.987,M,0.0,*71
$GPRMC,122809.00,A,5025.8296260,N,00326.2996646,E,0.24,325.56,251119,0.0,E,A*3F
$GPGGA,122809.00,5025.8296260,N,00326.2996646,E,1,12,1.0,15.727,M,44.987,M,0.0,*74
$GPRMC,122810.00,A,5025.8304181,N,00326.3013466,E,3.21,305.64,251119,0.0,E,A*31
$GPGGA,122810.00,5025.8304181,N,00326.3013466,E,1,11,1.0,8.418,M,44.987,M,0.0,*4F
$GPRMC,122811.00,A,5025.8307808,N,00326.2980242,E,7.17,276.76,251119,0.0,E,A*3E
$GPGGA,122811.00,5025.8307808,N,00326.2980242,E,1,12,1.0,10.585,M,44.987,M,0.0,*78
$GPRMC,122812.00,A,5025.8298463,N,00326.2932387,E,9.27,252.07,251119,0.0,E,A*37
$GPGGA,122812.00,5025.8298463,N,00326.2932387,E,1,13,1.0,15.533,M,44.987,M,0.0,*75
$GPRMC,122813.00,A,5025.8289820,N,00326.2905124,E,9.91,245.24,251119,0.0,E,A*38
$GPGGA,122813.00,5025.8289820,N,00326.2905124,E,1,13,1.0,13.012,M,44.987,M,0.0,*70
$GPRMC,122814.00,A,5025.8281207,N,00326.2858862,E,12.46,257.43,251119,0.0,E,A*08
$GPGGA,122814.00,5025.8281207,N,00326.2858862,E,1,13,1.0,12.171,M,44.987,M,0.0,*77
$GPRMC,122815.00,A,5025.8274962,N,00326.2793444,E,15.18,263.41,251119,0.0,E,A*02
$GPGGA,122815.00,5025.8274962,N,00326.2793444,E,1,12,1.0,12.867,M,44.987,M,0.0,*7B
$GPRMC,122816.00,A,5025.8267668,N,00326.2735701,E,17.35,267.55,251119,0.0,E,A*04
$GPGGA,122816.00,5025.8267668,N,00326.2735701,E,1,09,1.0,13.153,M,44.986,M,0.0,*75
$GPRMC,122817.00,A,5025.8265647,N,00326.2657932,E,18.10,266.76,251119,0.0,E,A*09
$GPGGA,122817.00,5025.8265647,N,00326.2657932,E,1,10,1.0,13.652,M,44.986,M,0.0,*7E
$GPRMC,122818.00,A,5025.8269653,N,00326.2566853,E,18.76,266.73,251119,0.0,E,A*0D
$GPGGA,122818.00,5025.8269653,N,00326.2566853,E,1,12,1.0,12.272,M,44.986,M,0.0,*7A
$GPRMC,122819.00,A,5025.8264375,N,00326.2472015,E,20.23,263.69,251119,0.0,E,A*0B
$GPGGA,122819.00,5025.8264375,N,00326.2472015,E,1,13,1.0,12.170,M,44.986,M,0.0,*79
$GPRMC,122820.00,A,5025.8251205,N,00326.2392049,E,21.10,260.56,251119,0.0,E,A*0F
$GPGGA,122820.00,5025.8251205,N,00326.2392049,E,1,13,1.0,11.961,M,44.986,M,0.0,*78
$GPRMC,122821.00,A,5025.8240586,N,00326.2305394,E,20.97,257.89,251119,0.0,E,A*07
$GPGGA,122821.00,5025.8240586,N,00326.2305394,E,1,13,1.0,11.647,M,44.986,M,0.0,*73
$GPRMC,122822.00,A,5025.8231564,N,00326.2212092,E,20.45,255.55,251119,0.0,E,A*00
$GPGGA,122822.00,5025.8231564,N,00326.2212092,E,1,13,1.0,11.256,M,44.986,M,0.0,*7C
$GPRMC,122823.00,A,5025.8214867,N,00326.2129957,E,19.96,253.46,251119,0.0,E,A*03
$GPGGA,122823.00,5025.8214867,N,00326.2129957,E,1,13,1.0,10.889,M,44.986,M,0.0,*76
$GPRMC,122824.00,A,5025.8198689,N,00326.2048681,E,19.15,250.62,251119,0.0,E,A*01
$GPGGA,122824.00,5025.8198689,N,00326.2048681,E,1,13,1.0,12.093,M,44.986,M,0.0,*7B
$GPRMC,122825.00,A,5025.8182784,N,00326.1975633,E,16.03,250.02,251119,0.0,E,A*04
$GPGGA,122825.00,5025.8182784,N,00326.1975633,E,1,13,1.0,11.709,M,44.985,M,0.0,*74
$GPRMC,122826.00,A,5025.8168814,N,00326.1913547,E,14.38,252.67,251119,0.0,E,A*0E
$GPGGA,122826.00,5025.8168814,N,00326.1913547,E,1,13,1.0,11.704,M,44.985,M,0.0,*78
$GPRMC,122827.00,A,5025.8159305,N,00326.1854739,E,13.15,256.66,251119,0.0,E,A*02
$GPGGA,122827.00,5025.8159305,N,00326.1854739,E,1,13,1.0,11.660,M,44.985,M,0.0,*7A
$GPRMC,122828.00,A,5025.8153415,N,00326.1798780,E,12.28,263.03,251119,0.0,E,A*06
$GPGGA,122828.00,5025.8153415,N,00326.1798780,E,1,13,1.0,11.472,M,44.985,M,0.0,*75
$GPRMC,122829.00,A,5025.8151621,N,00326.1750363,E,10.29,268.17,251119,0.0,E,A*00
$GPGGA,122829.00,5025.8151621,N,00326.1750363,E,1,13,1.0,12.157,M,44.985,M,0.0,*7F
$GPRMC,122830.00,A,5025.8151782,N,00326.1707225,E,10.30,272.40,251119,0.0,E,A*00
$GPGGA,122830.00,5025.8151782,N,00326.1707225,E,1,13,1.0,11.820,M,44.985,M,0.0,*74
$GPRMC,122831.00,A,5025.8154631,N,00326.1659431,E,11.87,277.80,251119,0.0,E,A*00
$GPGGA,122831.00,5025.8154631,N,00326.1659431,E,1,13,1.0,12.298,M,44.985,M,0.0,*7A
$GPRMC,122832.00,A,5025.8158901,N,00326.1602190,E,14.57,277.64,251119,0.0,E,A*01
$GPGGA,122832.00,5025.8158901,N,00326.1602190,E,1,13,1.0,12.864,M,44.985,M,0.0,*70
$GPRMC,122833.00,A,5025.8164705,N,00326.1534144,E,17.17,276.97,251119,0.0,E,A*00
$GPGGA,122833.00,5025.8164705,N,00326.1534144,E,1,13,1.0,12.667,M,44.985,M,0.0,*76
$GPRMC,122834.00,A,5025.8172410,N,00326.1456045,E,18.11,275.53,251119,0.0,E,A*00
$GPGGA,122834.00,5025.8172410,N,00326.1456045,E,1,12,1.0,11.126,M,44.985,M,0.0,*74
$GPRMC,122835.00,A,5025.8171956,N,00326.1381793,E,16.89,275.34,251119,0.0,E,A*02
$GPGGA,122835.00,5025.8171956,N,00326.1381793,E,1,13,1.0,16.077,M,44.985,M,0.0,*7B
$GPRMC,122836.00,A,5025.8177008,N,00326.1311262,E,16.16,276.09,251119,0.0,E,A*0C
$GPGGA,122836.00,5025.8177008,N,00326.1311262,E,1,13,1.0,15.954,M,44.985,M,0.0,*75
$GPRMC,122837.00,A,5025.8185302,N,00326.1239821,E,16.26,277.52,251119,0.0,E,A*03
$GPGGA,122837.00,5025.8185302,N,00326.1239821,E,1,13,1.0,13.203,M,44.984,M,0.0,*78
$GPRMC,122838.00,A,5025.8190380,N,00326.1167239,E,17.16,275.61,251119,0.0,E,A*09
$GPGGA,122838.00,5025.8190380,N,00326.1167239,E,1,13,1.0,12.438,M,44.984,M,0.0,*7D
$GPRMC,122839.00,A,5025.8192777,N,00326.1088776,E,19.33,273.37,251119,0.0,E,A*04
$GPGGA,122839.00,5025.8192777,N,00326.1088776,E,1,13,1.0,12.871,M,44.984,M,0.0,*7D
$GPRMC,122840.00,A,5025.8195998,N,00326.1001438,E,21.28,273.01,251119,0.0,E,A*0E
$GPGGA,122840.00,5025.8195998,N,00326.1001438,E,1,13,1.0,12.179,M,44.984,M,0.0,*72
$GPRMC,122841.00,A,5025.8200191,N,00326.0904494,E,23.50,273.28,251119,0.0,E,A*0C
$GPGGA,122841.00,5025.8200191,N,00326.0904494,E,1,13,1.0,10.970,M,44.984,M,0.0,*75
$GPRMC,122842.00,A,5025.8203095,N,00326.0798256,E,25.59,273.09,251119,0.0,E,A*06
$GPGGA,122842.00,5025.8203095,N,00326.0798256,E,1,13,1.0,11.116,M,44.984,M,0.0,*7A
$GPRMC,122843.00,A,5025.8207462,N,00326.0683778,E,26.76,272.87,251119,0.0,E,A*04
$GPGGA,122843.00,5025.8207462,N,00326.0683778,E,1,13,1.0,11.244,M,44.984,M,0.0,*75
$GPRMC,122844.00,A,5025.8211187,N,00326.0567048,E,26.71,272.55,251119,0.0,E,A*0F
$GPGGA,122844.00,5025.8211187,N,00326.0567048,E,1,13,1.0,11.211,M,44.983,M,0.0,*71
$GPRMC,122845.00,A,5025.8215185,N,00326.0451205,E,26.31,272.97,251119,0.0,E,A*0D
$GPGGA,122845.00,5025.8215185,N,00326.0451205,E,1,13,1.0,10.919,M,44.983,M,0.0,*7B
$GPRMC,122846.00,A,5025.8219059,N,00326.0336961,E,26.66,273.20,251119,0.0,E,A*02
$GPGGA,122846.00,5025.8219059,N,00326.0336961,E,1,13,1.0,10.893,M,44.983,M,0.0,*78
$GPRMC,122847.00,A,5025.8222790,N,00326.0222092,E,26.57,273.21,251119,0.0,E,A*0B
$GPGGA,122847.00,5025.8222790,N,00326.0222092,E,1,13,1.0,11.110,M,44.983,M,0.0,*71
$GPRMC,122848.00,A,5025.8226941,N,00326.0104532,E,26.75,272.90,251119,0.0,E,A*01
$GPGGA,122848.00,5025.8226941,N,00326.0104532,E,1,13,1.0,11.223,M,44.983,M,0.0,*73
$GPRMC,122849.00,A,5025.8229935,N,00325.9988232,E,26.78,272.97,251119,0.0,E,A*07
$GPGGA,122849.00,5025.8229935,N,00325.9988232,E,1,13,1.0,11.040,M,44.983,M,0.0,*78
$GPRMC,122850.00,A,5025.8233249,N,00325.9872416,E,26.75,273.03,251119,0.0,E,A*01
$GPGGA,122850.00,5025.8233249,N,00325.9872416,E,1,13,1.0,11.487,M,44.983,M,0.0,*70
$GPRMC,122851.00,A,5025.8236645,N,00325.9757049,E,26.51,272.95,251119,0.0,E,A*03
$GPGGA,122851.00,5025.8236645,N,00325.9757049,E,1,13,1.0,11.604,M,44.982,M,0.0,*72
$GPRMC,122852.00,A,5025.8240859,N,00325.9642092,E,26.34,273.10,251119,0.0,E,A*0E
$GPGGA,122852.00,5025.8240859,N,00325.9642092,E,1,13,1.0,11.598,M,44.982,M,0.0,*76
$GPRMC,122853.00,A,5025.8244896,N,00325.9528728,E,26.17,273.29,251119,0.0,E,A*0A
$GPGGA,122853.00,5025.8244896,N,00325.9528728,E,1,13,1.0,11.818,M,44.982,M,0.0,*7C
$GPRMC,122854.00,A,5025.8249318,N,00325.9414206,E,26.15,273.26,251119,0.0,E,A*07
$GPGGA,122854.00,5025.8249318,N,00325.9414206,E,1,13,1.0,11.870,M,44.982,M,0.0,*72
$GPRMC,122855.00,A,5025.8254170,N,00325.9301780,E,25.97,272.87,251119,0.0,E,A*0D
$GPGGA,122855.00,5025.8254170,N,00325.9301780,E,1,13,1.0,11.734,M,44.982,M,0.0,*74
$GPRMC,122856.00,A,5025.8257629,N,00325.9189906,E,26.09,272.88,251119,0.0,E,A*0F
$GPGGA,122856.00,5025.8257629,N,00325.9189906,E,1,13,1.0,11.408,M,44.982,M,0.0,*71
$GPRMC,122857.00,A,5025.8262850,N,00325.9077702,E,25.82,274.22,251119,0.0,E,A*04
$GPGGA,122857.00,5025.8262850,N,00325.9077702,E,1,13,1.0,11.424,M,44.981,M,0.0,*71
$GPRMC,122858.00,A,5025.8267458,N,00325.8966076,E,25.83,274.68,251119,0.0,E,A*09
$GPGGA,122858.00,5025.8267458,N,00325.8966076,E,1,13,1.0,11.285,M,44.981,M,0.0,*7E
$GPRMC,122859.00,A,5025.8270618,N,00325.8852603,E,25.81,273.13,251119,0.0,E,A*03
$GPGGA,122859.00,5025.8270618,N,00325.8852603,E,1,13,1.0,11.417,M,44.981,M,0.0,*70
$GPRMC,122900.00,A,5025.8278035,N,00325.8739930,E,26.23,273.59,251119,0.0,E,A*07
$GPGGA,122900.00,5025.8278035,N,00325.8739930,E,1,13,1.0,11.691,M,44.981,M,0.0,*7D
$GPRMC,122901.00,A,5025.8279136,N,00325.8627578,E,25.78,273.41,251119,0.0,E,A*0F
$GPGGA,122901.00,5025.8279136,N,00325.8627578,E,1,13,1.0,11.031,M,44.981,M,0.0,*7D
$GPRMC,122902.00,A,5025.8284233,N,00325.8515430,E,26.00,274.68,251119,0.0,E,A*07
$GPGGA,122902.00,5025.8284233,N,00325.8515430,E,1,13,1.0,11.130,M,44.981,M,0.0,*75
$GPRMC,122903.00,A,5025.8291337,N,00325.8404589,E,25.61,277.57,251119,0.0,E,A*0E
$GPGGA,122903.00,5025.8291337,N,00325.8404589,E,1,13,1.0,10.913,M,44.980,M,0.0,*7E
$GPRMC,122904.00,A,5025.8304810,N,00325.8294711,E,25.77,282.06,251119,0.0,E,A*0F
$GPGGA,122904.00,5025.8304810,N,00325.8294711,E,1,13,1.0,11.081,M,44.980,M,0.0,*75
$GPRMC,122905.00,A,5025.8322793,N,00325.8187298,E,25.78,288.12,251119,0.0,E,A*0B
$GPGGA,122905.00,5025.8322793,N,00325.8187298,E,1,13,1.0,11.207,M,44.980,M,0.0,*7D
$GPRMC,122906.00,A,5025.8349572,N,00325.8084523,E,25.79,294.05,251119,0.0,E,A*07
$GPGGA,122906.00,5025.8349572,N,00325.8084523,E,1,13,1.0,11.427,M,44.980,M,0.0,*7F
$GPRMC,122907.00,A,5025.8380865,N,00325.7983890,E,25.97,296.62,251119,0.0,E,A*0F
$GPGGA,122907.00,5025.8380865,N,00325.7983890,E,1,13,1.0,11.071,M,44.980,M,0.0,*73
$GPRMC,122908.00,A,5025.8413673,N,00325.7882284,E,25.75,296.45,251119,0.0,E,A*02
$GPGGA,122908.00,5025.8413673,N,00325.7882284,E,1,13,1.0,11.278,M,44.980,M,0.0,*7C
$GPRMC,122909.00,A,5025.8445480,N,00325.7784705,E,24.98,297.60,251119,0.0,E,A*0F
$GPGGA,122909.00,5025.8445480,N,00325.7784705,E,1,13,1.0,11.476,M,44.980,M,0.0,*7D
$GPRMC,122910.00,A,5025.8477320,N,00325.7690190,E,24.25,297.98,251119,0.0,E,A*04
$GPGGA,122910.00,5025.8477320,N,00325.7690190,E,1,13,1.0,11.636,M,44.979,M,0.0,*77
$GPRMC,122911.00,A,5025.8508476,N,00325.7599431,E,23.52,298.46,251119,0.0,E,A*07
$GPGGA,122911.00,5025.8508476,N,00325.7599431,E,1,13,1.0,11.679,M,44.979,M,0.0,*74
$GPRMC,122912.00,A,5025.8538988,N,00325.7510065,E,22.70,298.60,251119,0.0,E,A*0A
$GPGGA,122912.00,5025.8538988,N,00325.7510065,E,1,13,1.0,11.778,M,44.979,M,0.0,*7C
$GPRMC,122913.00,A,5025.8569117,N,00325.7426341,E,21.99,299.56,251119,0.0,E,A*00
$GPGGA,122913.00,5025.8569117,N,00325.7426341,E,1,13,1.0,12.001,M,44.979,M,0.0,*7C
$GPRMC,122914.00,A,5025.8599796,N,00325.7344926,E,21.20,299.47,251119,0.0,E,A*0D
$GPGGA,122914.00,5025.8599796,N,00325.7344926,E,1,13,1.0,11.537,M,44.979,M,0.0,*70
$GPRMC,122915.00,A,5025.8628158,N,00325.7265751,E,20.62,299.21,251119,0.0,E,A*0A
$GPGGA,122915.00,5025.8628158,N,00325.7265751,E,1,13,1.0,11.275,M,44.979,M,0.0,*71
$GPRMC,122916.00,A,5025.8656018,N,00325.7186737,E,20.76,299.46,251119,0.0,E,A*0F
$GPGGA,122916.00,5025.8656018,N,00325.7186737,E,1,13,1.0,12.063,M,44.979,M,0.0,*76
$GPRMC,122917.00,A,5025.8679908,N,00325.7117030,E,20.82,299.29,251119,0.0,E,A*01
$GPGGA,122917.00,5025.8679908,N,00325.7117030,E,1,10,1.0,11.543,M,44.979,M,0.0,*7D
$GPRMC,122918.00,A,5025.8714591,N,00325.7022550,E,20.94,298.66,251119,0.0,E,A*01
$GPGGA,122918.00,5025.8714591,N,00325.7022550,E,1,11,1.0,12.723,M,44.978,M,0.0,*77
$GPRMC,122919.00,A,5025.8745885,N,00325.6963104,E,20.14,298.39,251119,0.0,E,A*06
$GPGGA,122919.00,5025.8745885,N,00325.6963104,E,1,11,1.0,12.080,M,44.978,M,0.0,*7C
$GPRMC,122920.00,A,5025.8767771,N,00325.6911525,E,18.07,297.86,251119,0.0,E,A*08
$GPGGA,122920.00,5025.8767771,N,00325.6911525,E,1,10,1.0,15.805,M,44.978,M,0.0,*73
$GPRMC,122921.00,A,5025.8791403,N,00325.6833482,E,15.45,295.53,251119,0.0,E,A*0A
$GPGGA,122921.00,5025.8791403,N,00325.6833482,E,1,13,1.0,14.432,M,44.978,M,0.0,*7A
$GPRMC,122922.00,A,5025.8804787,N,00325.6767615,E,12.31,299.46,251119,0.0,E,A*0B
$GPGGA,122922.00,5025.8804787,N,00325.6767615,E,1,13,1.0,13.808,M,44.978,M,0.0,*75
$GPRMC,122923.00,A,5025.8813259,N,00325.6714495,E,11.28,285.88,251119,0.0,E,A*00
$GPGGA,122923.00,5025.8813259,N,00325.6714495,E,1,13,1.0,13.364,M,44.978,M,0.0,*7B
$GPRMC,122924.00,A,5025.8820104,N,00325.6667318,E,13.51,266.30,251119,0.0,E,A*09
$GPGGA,122924.00,5025.8820104,N,00325.6667318,E,1,13,1.0,11.037,M,44.978,M,0.0,*77
$GPRMC,122925.00,A,5025.8811340,N,00325.6602087,E,16.84,255.62,251119,0.0,E,A*04
$GPGGA,122925.00,5025.8811340,N,00325.6602087,E,1,13,1.0,10.797,M,44.978,M,0.0,*7C
$GPRMC,122926.00,A,5025.8798530,N,00325.6520041,E,19.10,252.88,251119,0.0,E,A*00
$GPGGA,122926.00,5025.8798530,N,00325.6520041,E,1,13,1.0,11.122,M,44.978,M,0.0,*70
$GPRMC,122927.00,A,5025.8775942,N,00325.6439569,E,19.35,252.79,251119,0.0,E,A*04
$GPGGA,122927.00,5025.8775942,N,00325.6439569,E,1,10,1.0,10.353,M,44.978,M,0.0,*7B
$GPRMC,122928.00,A,5025.8773926,N,00325.6365646,E,21.13,253.33,251119,0.0,E,A*0F
$GPGGA,122928.00,5025.8773926,N,00325.6365646,E,1,11,1.0,14.154,M,44.978,M,0.0,*70
$GPRMC,122929.00,A,5025.8739545,N,00325.6267799,E,23.10,253.59,251119,0.0,E,A*04
$GPGGA,122929.00,5025.8739545,N,00325.6267799,E,1,10,1.0,11.475,M,44.977,M,0.0,*7B
$GPRMC,122930.00,A,5025.8726741,N,00325.6169604,E,24.16,252.61,251119,0.0,E,A*07
$GPGGA,122930.00,5025.8726741,N,00325.6169604,E,1,13,1.0,11.261,M,44.977,M,0.0,*73
$GPRMC,122931.00,A,5025.8701107,N,00325.6068731,E,24.20,253.01,251119,0.0,E,A*02
$GPGGA,122931.00,5025.8701107,N,00325.6068731,E,1,13,1.0,11.410,M,44.977,M,0.0,*74
$GPRMC,122932.00,A,5025.8685501,N,00325.5967457,E,24.86,252.72,251119,0.0,E,A*01
$GPGGA,122932.00,5025.8685501,N,00325.5967457,E,1,13,1.0,11.744,M,44.977,M,0.0,*7C
$GPRMC,122933.00,A,5025.8666495,N,00325.5860858,E,25.31,252.81,251119,0.0,E,A*05
$GPGGA,122933.00,5025.8666495,N,00325.5860858,E,1,13,1.0,13.158,M,44.977,M,0.0,*70
$GPRMC,122934.00,A,5025.8646657,N,00325.5753751,E,25.65,253.09,251119,0.0,E,A*05
$GPGGA,122934.00,5025.8646657,N,00325.5753751,E,1,13,1.0,12.184,M,44.977,M,0.0,*70
$GPRMC,122935.00,A,5025.8624861,N,00325.5649747,E,25.91,253.33,251119,0.0,E,A*04
$GPGGA,122935.00,5025.8624861,N,00325.5649747,E,1,13,1.0,12.301,M,44.977,M,0.0,*7C
$GPRMC,122936.00,A,5025.8604224,N,00325.5539501,E,26.05,253.27,251119,0.0,E,A*01
$GPGGA,122936.00,5025.8604224,N,00325.5539501,E,1,13,1.0,11.418,M,44.976,M,0.0,*7F
$GPRMC,122937.00,A,5025.8581575,N,00325.5431751,E,26.43,252.87,251119,0.0,E,A*0A
$GPGGA,122937.00,5025.8581575,N,00325.5431751,E,1,13,1.0,11.234,M,44.976,M,0.0,*75
$GPRMC,122938.00,A,5025.8561171,N,00325.5323469,E,26.61,252.59,251119,0.0,E,A*04
$GPGGA,122938.00,5025.8561171,N,00325.5323469,E,1,13,1.0,11.953,M,44.976,M,0.0,*72
$GPRMC,122939.00,A,5025.8537157,N,00325.5209657,E,27.91,252.08,251119,0.0,E,A*0E
$GPGGA,122939.00,5025.8537157,N,00325.5209657,E,1,13,1.0,11.214,M,44.976,M,0.0,*7A
$GPRMC,122940.00,A,5025.8513434,N,00325.5091496,E,29.08,251.74,251119,0.0,E,A*0C
$GPGGA,122940.00,5025.8513434,N,00325.5091496,E,1,13,1.0,11.014,M,44.976,M,0.0,*7C
$GPRMC,122941.00,A,5025.8489205,N,00325.4966072,E,30.58,253.99,251119,0.0,E,A*09
$GPGGA,122941.00,5025.8489205,N,00325.4966072,E,1,13,1.0,11.094,M,44.976,M,0.0,*7D
$GPRMC,122942.00,A,5025.8464866,N,00325.4838620,E,31.80,252.80,251119,0.0,E,A*00
$GPGGA,122942.00,5025.8464866,N,00325.4838620,E,1,13,1.0,11.683,M,44.975,M,0.0,*7A
$GPRMC,122943.00,A,5025.8436745,N,00325.4702467,E,33.15,252.54,251119,0.0,E,A*08
$GPGGA,122943.00,5025.8436745,N,00325.4702467,E,1,13,1.0,10.575,M,44.975,M,0.0,*7E
$GPRMC,122944.00,A,5025.8412406,N,00325.4563158,E,34.22,252.56,251119,0.0,E,A*00
$GPGGA,122944.00,5025.8412406,N,00325.4563158,E,1,13,1.0,11.749,M,44.975,M,0.0,*7B
$GPRMC,122945.00,A,5025.8386843,N,00325.4419114,E,34.39,253.59,251119,0.0,E,A*06
$GPGGA,122945.00,5025.8386843,N,00325.4419114,E,1,13,1.0,11.532,M,44.975,M,0.0,*77
$GPRMC,122946.00,A,5025.8351198,N,00325.4271955,E,35.72,252.88,251119,0.0,E,A*06
$GPGGA,122946.00,5025.8351198,N,00325.4271955,E,1,13,1.0,10.850,M,44.975,M,0.0,*7C
$GPRMC,122947.00,A,5025.8324620,N,00325.4122515,E,36.49,252.70,251119,0.0,E,A*00
$GPGGA,122947.00,5025.8324620,N,00325.4122515,E,1,13,1.0,11.113,M,44.975,M,0.0,*79
$GPRMC,122948.00,A,5025.8294739,N,00325.3972425,E,37.40,252.59,251119,0.0,E,A*07
$GPGGA,122948.00,5025.8294739,N,00325.3972425,E,1,13,1.0,11.826,M,44.974,M,0.0,*73
$GPRMC,122949.00,A,5025.8266100,N,00325.3810875,E,38.20,253.05,251119,0.0,E,A*0A
$GPGGA,122949.00,5025.8266100,N,00325.3810875,E,1,13,1.0,12.270,M,44.974,M,0.0,*75
$GPRMC,122950.00,A,5025.8232467,N,00325.3650328,E,39.00,252.87,251119,0.0,E,A*06
$GPGGA,122950.00,5025.8232467,N,00325.3650328,E,1,13,1.0,12.698,M,44.974,M,0.0,*73
$GPRMC,122951.00,A,5025.8199286,N,00325.3488020,E,39.58,253.03,251119,0.0,E,A*00
$GPGGA,122951.00,5025.8199286,N,00325.3488020,E,1,13,1.0,12.251,M,44.974,M,0.0,*74
$GPRMC,122952.00,A,5025.8167441,N,00325.3323789,E,39.97,253.12,251119,0.0,E,A*0E
$GPGGA,122952.00,5025.8167441,N,00325.3323789,E,1,13,1.0,12.403,M,44.973,M,0.0,*7F
$GPRMC,122953.00,A,5025.8134728,N,00325.3157878,E,40.00,252.91,251119,0.0,E,A*0F
$GPGGA,122953.00,5025.8134728,N,00325.3157878,E,1,13,1.0,12.130,M,44.973,M,0.0,*71
$GPRMC,122954.00,A,5025.8102042,N,00325.2990456,E,40.08,252.93,251119,0.0,E,A*0E
$GPGGA,122954.00,5025.8102042,N,00325.2990456,E,1,13,1.0,12.055,M,44.973,M,0.0,*78
$GPRMC,122955.00,A,5025.8068683,N,00325.2824935,E,40.26,253.03,251119,0.0,E,A*0B
$GPGGA,122955.00,5025.8068683,N,00325.2824935,E,1,13,1.0,12.116,M,44.973,M,0.0,*7F
$GPRMC,122956.00,A,5025.8035830,N,00325.2659374,E,40.15,253.14,251119,0.0,E,A*0B
$GPGGA,122956.00,5025.8035830,N,00325.2659374,E,1,13,1.0,11.735,M,44.973,M,0.0,*7D
$GPRMC,122957.00,A,5025.8004968,N,00325.2488893,E,40.04,252.98,251119,0.0,E,A*0D
$GPGGA,122957.00,5025.8004968,N,00325.2488893,E,1,13,1.0,11.851,M,44.972,M,0.0,*72
$GPRMC,122958.00,A,5025.7971852,N,00325.2324488,E,40.00,252.87,251119,0.0,E,A*03
$GPGGA,122958.00,5025.7971852,N,00325.2324488,E,1,13,1.0,11.892,M,44.972,M,0.0,*79
$GPRMC,122959.00,A,5025.7941243,N,00325.2154854,E,39.92,253.39,251119,0.0,E,A*02
$GPGGA,122959.00,5025.7941243,N,00325.2154854,E,1,13,1.0,11.302,M,44.972,M,0.0,*7B
$GPRMC,123000.00,A,5025.7907788,N,00325.1991018,E,39.79,253.39,251119,0.0,E,A*01
$GPGGA,123000.00,5025.7907788,N,00325.1991018,E,1,13,1.0,11.649,M,44.972,M,0.0,*77
$GPRMC,123001.00,A,5025.7876439,N,00325.1825932,E,39.59,252.98,251119,0.0,E,A*09
$GPGGA,123001.00,5025.7876439,N,00325.1825932,E,1,13,1.0,12.283,M,44.971,M,0.0,*75
$GPRMC,123002.00,A,5025.7844581,N,00325.1662023,E,39.05,253.61,251119,0.0,E,A*03
$GPGGA,123002.00,5025.7844581,N,00325.1662023,E,1,13,1.0,12.283,M,44.971,M,0.0,*71
$GPRMC,123003.00,A,5025.7810770,N,00325.1502423,E,39.34,252.44,251119,0.0,E,A*0A
$GPGGA,123003.00,5025.7810770,N,00325.1502423,E,1,13,1.0,13.229,M,44.971,M,0.0,*7D
$GPRMC,123004.00,A,5025.7779825,N,00325.1334112,E,39.33,252.82,251119,0.0,E,A*0B
$GPGGA,123004.00,5025.7779825,N,00325.1334112,E,1,13,1.0,12.536,M,44.971,M,0.0,*79
$GPRMC,123005.00,A,5025.7749390,N,00325.1170306,E,39.74,252.50,251119,0.0,E,A*05
$GPGGA,123005.00,5025.7749390,N,00325.1170306,E,1,13,1.0,12.277,M,44.971,M,0.0,*79
$GPRMC,123006.00,A,5025.7712593,N,00325.1003414,E,39.86,252.41,251119,0.0,E,A*01
$GPGGA,123006.00,5025.7712593,N,00325.1003414,E,1,13,1.0,11.243,M,44.970,M,0.0,*75
$GPRMC,123007.00,A,5025.7680131,N,00325.0835627,E,39.80,253.40,251119,0.0,E,A*0E
$GPGGA,123007.00,5025.7680131,N,00325.0835627,E,1,13,1.0,11.553,M,44.970,M,0.0,*7A
$GPRMC,123008.00,A,5025.7648767,N,00325.0674364,E,39.64,252.02,251119,0.0,E,A*04
$GPGGA,123008.00,5025.7648767,N,00325.0674364,E,1,13,1.0,11.884,M,44.970,M,0.0,*7A
$GPRMC,123009.00,A,5025.7616348,N,00325.0509585,E,40.42,247.63,251119,0.0,E,A*0E
$GPGGA,123009.00,5025.7616348,N,00325.0509585,E,1,13,1.0,13.522,M,44.970,M,0.0,*7A
$GPRMC,123010.00,A,5025.7571687,N,00325.0347694,E,39.97,249.92,251119,0.0,E,A*0B
$GPGGA,123010.00,5025.7571687,N,00325.0347694,E,1,13,1.0,12.896,M,44.970,M,0.0,*7A
$GPRMC,123011.00,A,5025.7534193,N,00325.0183275,E,40.38,252.22,251119,0.0,E,A*02
$GPGGA,123011.00,5025.7534193,N,00325.0183275,E,1,13,1.0,11.971,M,44.969,M,0.0,*7A
$GPRMC,123012.00,A,5025.7501587,N,00325.0018686,E,38.97,253.68,251119,0.0,E,A*08
$GPGGA,123012.00,5025.7501587,N,00325.0018686,E,1,13,1.0,12.017,M,44.969,M,0.0,*7F
$GPRMC,123013.00,A,5025.7473715,N,00324.9861332,E,36.28,255.27,251119,0.0,E,A*07
$GPGGA,123013.00,5025.7473715,N,00324.9861332,E,1,13,1.0,11.945,M,44.969,M,0.0,*7A
$GPRMC,123014.00,A,5025.7450356,N,00324.9710406,E,34.65,256.15,251119,0.0,E,A*02
$GPGGA,123014.00,5025.7450356,N,00324.9710406,E,1,13,1.0,11.813,M,44.969,M,0.0,*74
$GPRMC,123015.00,A,5025.7427580,N,00324.9567687,E,34.08,254.93,251119,0.0,E,A*00
$GPGGA,123015.00,5025.7427580,N,00324.9567687,E,1,13,1.0,12.256,M,44.968,M,0.0,*78
$GPRMC,123016.00,A,5025.7406404,N,00324.9426756,E,33.03,255.83,251119,0.0,E,A*08
$GPGGA,123016.00,5025.7406404,N,00324.9426756,E,1,13,1.0,13.081,M,44.968,M,0.0,*75
$GPRMC,123017.00,A,5025.7385059,N,00324.9289825,E,31.65,255.46,251119,0.0,E,A*0A
$GPGGA,123017.00,5025.7385059,N,00324.9289825,E,1,13,1.0,12.739,M,44.968,M,0.0,*79
$GPRMC,123018.00,A,5025.7365912,N,00324.9160707,E,29.90,257.21,251119,0.0,E,A*06
$GPGGA,123018.00,5025.7365912,N,00324.9160707,E,1,13,1.0,12.566,M,44.968,M,0.0,*7D
$GPRMC,123019.00,A,5025.7349722,N,00324.9035486,E,29.17,256.81,251119,0.0,E,A*0B
$GPGGA,123019.00,5025.7349722,N,00324.9035486,E,1,13,1.0,12.650,M,44.968,M,0.0,*72
$GPRMC,123020.00,A,5025.7322436,N,00324.8914973,E,28.53,258.45,251119,0.0,E,A*01
$GPGGA,123020.00,5025.7322436,N,00324.8914973,E,1,13,1.0,9.772,M,44.968,M,0.0,*44
$GPRMC,123021.00,A,5025.7316269,N,00324.8791710,E,28.05,260.16,251119,0.0,E,A*0D
$GPGGA,123021.00,5025.7316269,N,00324.8791710,E,1,13,1.0,11.768,M,44.967,M,0.0,*7B
$GPRMC,123022.00,A,5025.7302511,N,00324.8677964,E,25.91,262.18,251119,0.0,E,A*0B
$GPGGA,123022.00,5025.7302511,N,00324.8677964,E,1,13,1.0,12.345,M,44.967,M,0.0,*79
$GPRMC,123023.00,A,5025.7292674,N,00324.8569533,E,24.81,261.44,251119,0.0,E,A*0A
$GPGGA,123023.00,5025.7292674,N,00324.8569533,E,1,13,1.0,12.070,M,44.967,M,0.0,*77
$GPRMC,123024.00,A,5025.7285003,N,00324.8463117,E,25.11,261.98,251119,0.0,E,A*0D
$GPGGA,123024.00,5025.7285003,N,00324.8463117,E,1,13,1.0,12.659,M,44.967,M,0.0,*74
$GPRMC,123025.00,A,5025.7270965,N,00324.8351387,E,26.16,262.25,251119,0.0,E,A*03
$GPGGA,123025.00,5025.7270965,N,00324.8351387,E,1,13,1.0,12.792,M,44.967,M,0.0,*7D
$GPRMC,123026.00,A,5025.7261707,N,00324.8240186,E,26.15,258.50,251119,0.0,E,A*00
$GPGGA,123026.00,5025.7261707,N,00324.8240186,E,1,13,1.0,12.900,M,44.967,M,0.0,*73
$GPRMC,123027.00,A,5025.7243483,N,00324.8126822,E,26.45,253.40,251119,0.0,E,A*05
$GPGGA,123027.00,5025.7243483,N,00324.8126822,E,1,12,1.0,12.029,M,44.967,M,0.0,*7A
$GPRMC,123028.00,A,5025.7227164,N,00324.8015655,E,26.89,254.55,251119,0.0,E,A*08
$GPGGA,123028.00,5025.7227164,N,00324.8015655,E,1,12,1.0,12.777,M,44.966,M,0.0,*79
$GPRMC,123029.00,A,5025.7200072,N,00324.7905926,E,27.13,253.97,251119,0.0,E,A*0D
$GPGGA,123029.00,5025.7200072,N,00324.7905926,E,1,12,1.0,13.344,M,44.966,M,0.0,*72
$GPRMC,123030.00,A,5025.7183278,N,00324.7788888,E,27.18,252.39,251119,0.0,E,A*05
$GPGGA,123030.00,5025.7183278,N,00324.7788888,E,1,13,1.0,12.309,M,44.966,M,0.0,*7D
$GPRMC,123031.00,A,5025.7160592,N,00324.7676510,E,27.19,253.65,251119,0.0,E,A*0F
$GPGGA,123031.00,5025.7160592,N,00324.7676510,E,1,13,1.0,11.643,M,44.966,M,0.0,*76
$GPRMC,123032.00,A,5025.7138120,N,00324.7564938,E,27.12,253.86,251119,0.0,E,A*0C
$GPGGA,123032.00,5025.7138120,N,00324.7564938,E,1,13,1.0,12.043,M,44.966,M,0.0,*76
$GPRMC,123033.00,A,5025.7116871,N,00324.7451256,E,26.95,252.83,251119,0.0,E,A*02
$GPGGA,123033.00,5025.7116871,N,00324.7451256,E,1,13,1.0,11.532,M,44.966,M,0.0,*72
$GPRMC,123034.00,A,5025.7093315,N,00324.7340768,E,26.80,253.31,251119,0.0,E,A*03
$GPGGA,123034.00,5025.7093315,N,00324.7340768,E,1,13,1.0,12.522,M,44.966,M,0.0,*7D
$GPRMC,123035.00,A,5025.7074749,N,00324.7228654,E,26.50,255.07,251119,0.0,E,A*09
$GPGGA,123035.00,5025.7074749,N,00324.7228654,E,1,13,1.0,12.231,M,44.965,M,0.0,*7F
$GPRMC,123036.00,A,5025.7058103,N,00324.7117908,E,26.27,256.65,251119,0.0,E,A*02
